[{"name":"Abbotsford","city":"Abbotsford","country":"Canada","country_code":"CA","iata":"YXX","icao":"CYXX","lat":"49.025278","longitude":"-122.360556","alt":"195","timezone":"-8","dst":"A","continent":"North America"},{"name":"Aklavik","city":"Aklavik","country":"Canada","country_code":"CA","iata":"LAK","icao":"CYKD","lat":"68.223333","longitude":"-135.005833","alt":"23","timezone":"-7","dst":"A","continent":"North America"},{"name":"Akulivik Airport","city":"Akulivik","country":"Canada","country_code":"CA","iata":"AKV","icao":"CYKO","lat":"60.8186","longitude":"-78.1486","alt":"75","timezone":"-5","dst":"A","continent":"North America"},{"name":"Alert","city":"Alert","country":"Canada","country_code":"CA","iata":"YLT","icao":"CYLT","lat":"82.517778","longitude":"-62.280556","alt":"100","timezone":"-5","dst":"A","continent":"North America"},{"name":"Alma Airport","city":"Alma","country":"Canada","country_code":"CA","iata":"YTF","icao":"CYTF","lat":"48.508611","longitude":"-71.641389","alt":"449","timezone":"-6","dst":"A","continent":"North America"},{"name":"Anahim Lake Airport","city":"Anahim Lake","country":"Canada","country_code":"CA","iata":"YAA","icao":"CAJ4","lat":"52.4525","longitude":"-125.303","alt":"3635","timezone":"-8","dst":"A","continent":"North America"},{"name":"Arctic Bay Airport","city":"Arctic Bay","country":"Canada","country_code":"CA","iata":"YAB","icao":"CJX7","lat":"73.006389","longitude":"-85.047222","alt":"72","timezone":"-5","dst":"A","continent":"North America"},{"name":"Armstrong","city":"Armstrong","country":"Canada","country_code":"CA","iata":"YYW","icao":"CYYW","lat":"50.290279","longitude":"-88.909721","alt":"1058","timezone":"-5","dst":"A","continent":"North America"},{"name":"Arviat","city":"Eskimo Point","country":"Canada","country_code":"CA","iata":"YEK","icao":"CYEK","lat":"61.094166","longitude":"-94.070833","alt":"32","timezone":"-6","dst":"A","continent":"North America"},{"name":"Atikokan Muni","city":"Atikokan","country":"Canada","country_code":"CA","iata":"YIB","icao":"CYIB","lat":"48.773888","longitude":"-91.638611","alt":"1408","timezone":"-6","dst":"A","continent":"North America"},{"name":"Attawapiskat Airport","city":"Attawapiskat","country":"Canada","country_code":"CA","iata":"YAT","icao":"CYAT","lat":"52.9275","longitude":"-82.4319","alt":"31","timezone":"-5","dst":"A","continent":"North America"},{"name":"Aupaluk Airport","city":"Aupaluk","country":"Canada","country_code":"CA","iata":"YPJ","icao":"CYLA","lat":"59.2967","longitude":"-69.5997","alt":"119","timezone":"-5","dst":"A","continent":"North America"},{"name":"Bagotville","city":"Bagotville","country":"Canada","country_code":"CA","iata":"YBG","icao":"CYBG","lat":"48.330555","longitude":"-70.996391","alt":"522","timezone":"-5","dst":"A","continent":"North America"},{"name":"Baie Comeau","city":"Baie Comeau","country":"Canada","country_code":"CA","iata":"YBC","icao":"CYBC","lat":"49.1325","longitude":"-68.204444","alt":"71","timezone":"-5","dst":"A","continent":"North America"},{"name":"Baker Lake","city":"Baker Lake","country":"Canada","country_code":"CA","iata":"YBK","icao":"CYBK","lat":"64.298889","longitude":"-96.077778","alt":"59","timezone":"-6","dst":"A","continent":"North America"},{"name":"Bathurst Airport","city":"Bathurst","country":"Canada","country_code":"CA","iata":"ZBF","icao":"CZBF","lat":"47.6297","longitude":"-65.7389","alt":"193","timezone":"-4","dst":"A","continent":"North America"},{"name":"Bearskin Lake Airport","city":"Bearskin Lake","country":"Canada","country_code":"CA","iata":"XBE","icao":"CNE3","lat":"53.9656","longitude":"-91.0272","alt":"800","timezone":"-6","dst":"A","continent":"North America"},{"name":"Bella Bella Airport","city":"Bella Bella","country":"Canada","country_code":"CA","iata":"ZEL","icao":"CYJQ","lat":"52.139722","longitude":"-128.063611","alt":"162","timezone":"-8","dst":"A","continent":"North America"},{"name":"Bella Coola Airport","city":"Bella Coola","country":"Canada","country_code":"CA","iata":"QBC","icao":"CYBD","lat":"52.3875","longitude":"-126.596","alt":"117","timezone":"-8","dst":"A","continent":"North America"},{"name":"Berens River","city":"Berens River","country":"Canada","country_code":"CA","iata":"YBV","icao":"CYBV","lat":"52.358889","longitude":"-97.018333","alt":"728","timezone":"-6","dst":"A","continent":"North America"},{"name":"Big Bay Water Aerodrome","city":"Big Bay","country":"Canada","country_code":"CA","iata":"YRR","icao":"N","lat":"50.4","longitude":"-125.133333","alt":"0","timezone":"-8","dst":"A","continent":"North America"},{"name":"Big Trout Lake Airport","city":"Big Trout Lake","country":"Canada","country_code":"CA","iata":"YTL","icao":"CYTL","lat":"53.8178","longitude":"-89.8969","alt":"729","timezone":"-5","dst":"A","continent":"North America"},{"name":"Black Tickle Airport","city":"Black Tickle","country":"Canada","country_code":"CA","iata":"YBI","icao":"CCE4","lat":"53.47","longitude":"-55.7875","alt":"57","timezone":"-4","dst":"A","continent":"North America"},{"name":"Bonaventure Airport","city":"Bonaventure","country":"Canada","country_code":"CA","iata":"YVB","icao":"CYVB","lat":"48.0711","longitude":"-65.4603","alt":"123","timezone":"-4","dst":"A","continent":"North America"},{"name":"Bonnyville Airport","city":"Bonnyville","country":"Canada","country_code":"CA","iata":"YBY","icao":"CYBF","lat":"54.304722","longitude":"-110.741111","alt":"1839","timezone":"-7","dst":"A","continent":"North America"},{"name":"Boundary Bay Airport","city":"Boundary Bay","country":"Canada","country_code":"CA","iata":"YDT","icao":"CZBB","lat":"49.073889","longitude":"-123.0075","alt":"6","timezone":"-8","dst":"A","continent":"North America"},{"name":"Brandon Muni","city":"Brandon","country":"Canada","country_code":"CA","iata":"YBR","icao":"CYBR","lat":"49.91","longitude":"-99.951944","alt":"1343","timezone":"-6","dst":"A","continent":"North America"},{"name":"Brantford","city":"Brantford","country":"Canada","country_code":"CA","iata":"YFD","icao":"CYFD","lat":"43.131389","longitude":"-80.3425","alt":"815","timezone":"-5","dst":"A","continent":"North America"},{"name":"Brochet Airport","city":"Brochet","country":"Canada","country_code":"CA","iata":"YBT","icao":"CYBT","lat":"57.889444","longitude":"-101.679167","alt":"1131","timezone":"-7","dst":"A","continent":"North America"},{"name":"Buffalo Narrows","city":"Buffalo Narrows","country":"Canada","country_code":"CA","iata":"YVT","icao":"CYVT","lat":"55.841944","longitude":"-108.4175","alt":"1444","timezone":"-6","dst":"N","continent":"North America"},{"name":"Burwash","city":"Burwash","country":"Canada","country_code":"CA","iata":"YDB","icao":"CYDB","lat":"61.371111","longitude":"-139.040556","alt":"2647","timezone":"-8","dst":"A","continent":"North America"},{"name":"Buttonville Muni","city":"Toronto","country":"Canada","country_code":"CA","iata":"YKZ","icao":"CYKZ","lat":"43.862221","longitude":"-79.37","alt":"650","timezone":"-5","dst":"A","continent":"North America"},{"name":"Calgary Intl","city":"Calgary","country":"Canada","country_code":"CA","iata":"YYC","icao":"CYYC","lat":"51.113888","longitude":"-114.020278","alt":"3557","timezone":"-7","dst":"A","continent":"North America"},{"name":"Calgary Springbank Airport","city":"Calgary","country":"Canada","country_code":"CA","iata":"YBW","icao":"CYBW","lat":"51.1031","longitude":"-114.374","alt":"3939","timezone":"-7","dst":"A","continent":"North America"},{"name":"Cambridge Bay","city":"Cambridge Bay","country":"Canada","country_code":"CA","iata":"YCB","icao":"CYCB","lat":"69.108055","longitude":"-105.138333","alt":"90","timezone":"-7","dst":"A","continent":"North America"},{"name":"Campbell River","city":"Campbell River","country":"Canada","country_code":"CA","iata":"YBL","icao":"CYBL","lat":"49.950832","longitude":"-125.270833","alt":"346","timezone":"-8","dst":"A","continent":"North America"},{"name":"Canadian Rockies Intl","city":"Cranbrook","country":"Canada","country_code":"CA","iata":"YXC","icao":"CYXC","lat":"49.612222","longitude":"-115.781944","alt":"3084","timezone":"-7","dst":"A","continent":"North America"},{"name":"Cape Dorset","city":"Cape Dorset","country":"Canada","country_code":"CA","iata":"YTE","icao":"CYTE","lat":"64.23","longitude":"-76.526667","alt":"164","timezone":"-5","dst":"A","continent":"North America"},{"name":"Cartwright Airport","city":"Cartwright","country":"Canada","country_code":"CA","iata":"YRF","icao":"CYCA","lat":"53.6828","longitude":"-57.0419","alt":"40","timezone":"-4","dst":"A","continent":"North America"},{"name":"Castlegar","city":"Castlegar","country":"Canada","country_code":"CA","iata":"YCG","icao":"CYCG","lat":"49.296389","longitude":"-117.6325","alt":"1624","timezone":"-8","dst":"A","continent":"North America"},{"name":"Cat Lake Airport","city":"Cat Lake","country":"Canada","country_code":"CA","iata":"YAC","icao":"CYAC","lat":"51.7272","longitude":"-91.8244","alt":"1344","timezone":"-6","dst":"A","continent":"North America"},{"name":"Central Railway Station","city":"Montreal","country":"Canada","country_code":"CA","iata":"YMY","icao":"N","lat":"45.499722","longitude":"-73.566111","alt":"0","timezone":"-5","dst":"A","continent":"North America"},{"name":"Chapais Airport","city":"Chibougamau","country":"Canada","country_code":"CA","iata":"YMT","icao":"CYMT","lat":"49.7719","longitude":"-74.5281","alt":"1270","timezone":"-5","dst":"A","continent":"North America"},{"name":"Chapleau","city":"Chapleau","country":"Canada","country_code":"CA","iata":"YLD","icao":"CYLD","lat":"47.82","longitude":"-83.346667","alt":"1470","timezone":"-5","dst":"A","continent":"North America"},{"name":"Charlo","city":"Charlo","country":"Canada","country_code":"CA","iata":"YCL","icao":"CYCL","lat":"47.990833","longitude":"-66.330278","alt":"132","timezone":"-4","dst":"A","continent":"North America"},{"name":"Charlottetown","city":"Charlottetown","country":"Canada","country_code":"CA","iata":"YYG","icao":"CYYG","lat":"46.290001","longitude":"-63.121111","alt":"160","timezone":"-4","dst":"A","continent":"North America"},{"name":"Chesterfield Inlet Airport","city":"Chesterfield Inlet","country":"Canada","country_code":"CA","iata":"YCS","icao":"CYCS","lat":"63.3469","longitude":"-90.7311","alt":"32","timezone":"-6","dst":"A","continent":"North America"},{"name":"Chevery Airport","city":"Chevery","country":"Canada","country_code":"CA","iata":"YHR","icao":"CYHR","lat":"50.4689","longitude":"-59.6367","alt":"39","timezone":"-4","dst":"A","continent":"North America"},{"name":"Chilliwack","city":"Chilliwack","country":"Canada","country_code":"CA","iata":"YCW","icao":"CYCW","lat":"49.152779","longitude":"-121.93889","alt":"32","timezone":"-8","dst":"A","continent":"North America"},{"name":"Chisasibi Airport","city":"Chisasibi","country":"Canada","country_code":"CA","iata":"YKU","icao":"CSU2","lat":"53.8056","longitude":"-78.9169","alt":"43","timezone":"-5","dst":"A","continent":"North America"},{"name":"Chris Hadfield","city":"Sarnia","country":"Canada","country_code":"CA","iata":"YZR","icao":"CYZR","lat":"42.999444","longitude":"-82.308889","alt":"594","timezone":"-5","dst":"A","continent":"North America"},{"name":"Churchill","city":"Churchill","country":"Canada","country_code":"CA","iata":"YYQ","icao":"CYYQ","lat":"58.739167","longitude":"-94.065","alt":"94","timezone":"-6","dst":"A","continent":"North America"},{"name":"Churchill Falls Airport","city":"Churchill Falls","country":"Canada","country_code":"CA","iata":"ZUM","icao":"CZUM","lat":"53.5619","longitude":"-64.1064","alt":"1442","timezone":"-4","dst":"A","continent":"North America"},{"name":"City Centre","city":"Toronto","country":"Canada","country_code":"CA","iata":"YTZ","icao":"CYTZ","lat":"43.627499","longitude":"-79.396167","alt":"251","timezone":"-5","dst":"A","continent":"North America"},{"name":"Clyde River","city":"Clyde River","country":"Canada","country_code":"CA","iata":"YCY","icao":"CYCY","lat":"70.486111","longitude":"-68.516667","alt":"87","timezone":"-5","dst":"A","continent":"North America"},{"name":"Cold Lake","city":"Cold Lake","country":"Canada","country_code":"CA","iata":"YOD","icao":"CYOD","lat":"54.404999","longitude":"-110.279444","alt":"1775","timezone":"-7","dst":"A","continent":"North America"},{"name":"Colville Lake Airport","city":"Colville Lake","country":"Canada","country_code":"CA","iata":"YCK","icao":"CEB3","lat":"67.0333","longitude":"-126.083","alt":"850","timezone":"-7","dst":"A","continent":"North America"},{"name":"Comox","city":"Comox","country":"Canada","country_code":"CA","iata":"YQQ","icao":"CYQQ","lat":"49.710833","longitude":"-124.886667","alt":"84","timezone":"-8","dst":"A","continent":"North America"},{"name":"Cornwall Regional Airport","city":"Cornwall","country":"Canada","country_code":"CA","iata":"YCC","icao":"CYCC","lat":"45.092778","longitude":"-74.567778","alt":"175","timezone":"-5","dst":"A","continent":"North America"},{"name":"Coronation","city":"Coronation","country":"Canada","country_code":"CA","iata":"YCT","icao":"CYCT","lat":"52.075001","longitude":"-111.445278","alt":"2595","timezone":"-7","dst":"A","continent":"North America"},{"name":"Cross Lake - Charlie Sinclair Memorial Airport","city":"Cross Lake","country":"Canada","country_code":"CA","iata":"YCR","icao":"CYCR","lat":"54.610833","longitude":"-97.760278","alt":"707","timezone":"-7","dst":"A","continent":"North America"},{"name":"Dauphin Barker","city":"Dauphin","country":"Canada","country_code":"CA","iata":"YDN","icao":"CYDN","lat":"51.100834","longitude":"-100.0525","alt":"999","timezone":"-6","dst":"A","continent":"North America"},{"name":"Dawson City","city":"Dawson","country":"Canada","country_code":"CA","iata":"YDA","icao":"CYDA","lat":"64.043056","longitude":"-139.127778","alt":"1215","timezone":"-8","dst":"A","continent":"North America"},{"name":"Dawson Creek","city":"Dawson Creek","country":"Canada","country_code":"CA","iata":"YDQ","icao":"CYDQ","lat":"55.742333","longitude":"-120.183","alt":"2148","timezone":"-7","dst":"A","continent":"North America"},{"name":"Dease Lake","city":"Dease Lake","country":"Canada","country_code":"CA","iata":"YDL","icao":"CYDL","lat":"58.422222","longitude":"-130.032222","alt":"2600","timezone":"-8","dst":"A","continent":"North America"},{"name":"Deer Lake","city":"Deer Lake","country":"Canada","country_code":"CA","iata":"YDF","icao":"CYDF","lat":"49.210833","longitude":"-57.391388","alt":"72","timezone":"-4","dst":"A","continent":"North America"},{"name":"Deer Lake Airport","city":"Deer Lake","country":"Canada","country_code":"CA","iata":"YVZ","icao":"CYVZ","lat":"52.6558","longitude":"-94.0614","alt":"1092","timezone":"-6","dst":"A","continent":"North America"},{"name":"Deline","city":"Deline","country":"Canada","country_code":"CA","iata":"YWJ","icao":"CYWJ","lat":"65.1833333","longitude":"-125.41666667","alt":"550","timezone":"-7","dst":"A","continent":"North America"},{"name":"Dorval Railway Station","city":"Dorval","country":"Canada","country_code":"CA","iata":"XAX","icao":"N","lat":"45.448611","longitude":"-73.74111","alt":"0","timezone":"-5","dst":"A","continent":"North America"},{"name":"Downsview","city":"Toronto","country":"Canada","country_code":"CA","iata":"YZD","icao":"CYZD","lat":"43.7425","longitude":"-79.465556","alt":"652","timezone":"-5","dst":"A","continent":"North America"},{"name":"Dryden Rgnl","city":"Dryden","country":"Canada","country_code":"CA","iata":"YHD","icao":"CYHD","lat":"49.831667","longitude":"-92.744167","alt":"1354","timezone":"-6","dst":"A","continent":"North America"},{"name":"Eastmain River Airport","city":"Eastmain River","country":"Canada","country_code":"CA","iata":"ZEM","icao":"CZEM","lat":"52.2264","longitude":"-78.5225","alt":"24","timezone":"-5","dst":"A","continent":"North America"},{"name":"Edmonton City Centre","city":"Edmonton","country":"Canada","country_code":"CA","iata":"YXD","icao":"CYXD","lat":"53.5725","longitude":"-113.520556","alt":"2200","timezone":"-7","dst":"A","continent":"North America"},{"name":"Edmonton Intl","city":"Edmonton","country":"Canada","country_code":"CA","iata":"YEG","icao":"CYEG","lat":"53.309723","longitude":"-113.579722","alt":"2373","timezone":"-7","dst":"A","continent":"North America"},{"name":"Edson","city":"Edson","country":"Canada","country_code":"CA","iata":"YET","icao":"CYET","lat":"53.578888","longitude":"-116.465","alt":"3041","timezone":"-7","dst":"A","continent":"North America"},{"name":"Ekati","city":"Ekati","country":"Canada","country_code":"CA","iata":"YOA","icao":"CYOA","lat":"64.698889","longitude":"-110.614722","alt":"1540","timezone":"-7","dst":"A","continent":"North America"},{"name":"Estevan","city":"Estevan","country":"Canada","country_code":"CA","iata":"YEN","icao":"CYEN","lat":"49.210278","longitude":"-102.965833","alt":"1905","timezone":"-6","dst":"N","continent":"North America"},{"name":"Eureka","city":"Eureka","country":"Canada","country_code":"CA","iata":"YEU","icao":"CYEU","lat":"79.994722","longitude":"-85.814167","alt":"256","timezone":"-6","dst":"A","continent":"North America"},{"name":"Fairmont Hot Springs","city":"Coral Harbour","country":"Canada","country_code":"CA","iata":"YZS","icao":"CYCZ","lat":"64.193333","longitude":"-83.359444","alt":"2661","timezone":"-7","dst":"A","continent":"North America"},{"name":"Faro","city":"Faro","country":"Canada","country_code":"CA","iata":"ZFA","icao":"CZFA","lat":"62.2075","longitude":"-133.375833","alt":"2351","timezone":"-8","dst":"A","continent":"North America"},{"name":"Flin Flon","city":"Flin Flon","country":"Canada","country_code":"CA","iata":"YFO","icao":"CYFO","lat":"54.678055","longitude":"-101.681667","alt":"997","timezone":"-6","dst":"A","continent":"North America"},{"name":"Fond-Du-Lac Airport","city":"Fond-Du-Lac","country":"Canada","country_code":"CA","iata":"ZFD","icao":"CZFD","lat":"59.3344","longitude":"-107.182","alt":"814","timezone":"-6","dst":"N","continent":"North America"},{"name":"Fort Albany Airport","city":"Fort Albany","country":"Canada","country_code":"CA","iata":"YFA","icao":"CYFA","lat":"52.2014","longitude":"-81.6969","alt":"48","timezone":"-5","dst":"A","continent":"North America"},{"name":"Fort Chipewyan","city":"Fort Chipewyan","country":"Canada","country_code":"CA","iata":"YPY","icao":"CYPY","lat":"58.767223","longitude":"-111.117222","alt":"761","timezone":"-7","dst":"A","continent":"North America"},{"name":"Fort Frances Municipal Airport","city":"Fort Frances","country":"Canada","country_code":"CA","iata":"YAG","icao":"CYAG","lat":"48.6542","longitude":"-93.4397","alt":"1125","timezone":"-6","dst":"A","continent":"North America"},{"name":"Fort Good Hope","city":"Fort Good Hope","country":"Canada","country_code":"CA","iata":"YGH","icao":"CYGH","lat":"66.26666667","longitude":"-128.65","alt":"215","timezone":"-7","dst":"A","continent":"North America"},{"name":"Fort Hope Airport","city":"Fort Hope","country":"Canada","country_code":"CA","iata":"YFH","icao":"CYFH","lat":"51.5619","longitude":"-87.9078","alt":"899","timezone":"-5","dst":"A","continent":"North America"},{"name":"Fort Mcmurray","city":"Fort Mcmurray","country":"Canada","country_code":"CA","iata":"YMM","icao":"CYMM","lat":"56.653333","longitude":"-111.221944","alt":"1211","timezone":"-7","dst":"A","continent":"North America"},{"name":"Fort Mcpherson","city":"Fort Mcpherson","country":"Canada","country_code":"CA","iata":"ZFM","icao":"CZFM","lat":"67.4075","longitude":"-134.860556","alt":"116","timezone":"-7","dst":"A","continent":"North America"},{"name":"Fort Nelson","city":"Fort Nelson","country":"Canada","country_code":"CA","iata":"YYE","icao":"CYYE","lat":"58.836389","longitude":"-122.596944","alt":"1253","timezone":"-8","dst":"A","continent":"North America"},{"name":"Fort Resolution","city":"Fort Resolution","country":"Canada","country_code":"CA","iata":"YFR","icao":"CYFR","lat":"61.180832","longitude":"-113.689722","alt":"526","timezone":"-7","dst":"A","continent":"North America"},{"name":"Fort Severn Airport","city":"Fort Severn","country":"Canada","country_code":"CA","iata":"YER","icao":"CYER","lat":"56.0189","longitude":"-87.6761","alt":"48","timezone":"-5","dst":"A","continent":"North America"},{"name":"Fort Simpson","city":"Fort Simpson","country":"Canada","country_code":"CA","iata":"YFS","icao":"CYFS","lat":"61.760153","longitude":"-121.236525","alt":"555","timezone":"-7","dst":"A","continent":"North America"},{"name":"Fort Smith","city":"Fort Smith","country":"Canada","country_code":"CA","iata":"YSM","icao":"CYSM","lat":"60.020278","longitude":"-111.961944","alt":"671","timezone":"-7","dst":"A","continent":"North America"},{"name":"Fort St John","city":"Fort Saint John","country":"Canada","country_code":"CA","iata":"YXJ","icao":"CYXJ","lat":"56.238056","longitude":"-120.740278","alt":"2280","timezone":"-8","dst":"A","continent":"North America"},{"name":"Fort St. James - Perison Airport","city":"Fort St. James","country":"Canada","country_code":"CA","iata":"YJM","icao":"CYJM","lat":"54.397222","longitude":"-124.262778","alt":"2364","timezone":"-8","dst":"A","continent":"North America"},{"name":"Fredericton","city":"Fredericton","country":"Canada","country_code":"CA","iata":"YFC","icao":"CYFC","lat":"45.868889","longitude":"-66.537222","alt":"68","timezone":"-4","dst":"A","continent":"North America"},{"name":"Gander Intl","city":"Gander","country":"Canada","country_code":"CA","iata":"YQX","icao":"CYQX","lat":"48.936944","longitude":"-54.568056","alt":"496","timezone":"-4","dst":"A","continent":"North America"},{"name":"Gaspe","city":"Gaspe","country":"Canada","country_code":"CA","iata":"YGP","icao":"CYGP","lat":"48.775278","longitude":"-64.478611","alt":"108","timezone":"-5","dst":"A","continent":"North America"},{"name":"Gatineau","city":"Gatineau","country":"Canada","country_code":"CA","iata":"YND","icao":"CYND","lat":"45.521694","longitude":"-75.563589","alt":"211","timezone":"-5","dst":"A","continent":"North America"},{"name":"Geraldton Greenstone Regional","city":"Geraldton","country":"Canada","country_code":"CA","iata":"YGQ","icao":"CYGQ","lat":"49.778332","longitude":"-86.939445","alt":"1144","timezone":"-5","dst":"A","continent":"North America"},{"name":"Gillam Airport","city":"Gillam","country":"Canada","country_code":"CA","iata":"YGX","icao":"CYGX","lat":"56.3575","longitude":"-94.7106","alt":"476","timezone":"-6","dst":"A","continent":"North America"},{"name":"Gjoa Haven","city":"Gjoa Haven","country":"Canada","country_code":"CA","iata":"YHK","icao":"CYHK","lat":"68.635556","longitude":"-95.849722","alt":"152","timezone":"-6","dst":"A","continent":"North America"},{"name":"Gods Lake Narrows Airport","city":"Gods Lake Narrows","country":"Canada","country_code":"CA","iata":"YGO","icao":"CYGO","lat":"54.5589","longitude":"-94.4914","alt":"617","timezone":"-6","dst":"A","continent":"North America"},{"name":"Gods River Airport","city":"Gods River","country":"Canada","country_code":"CA","iata":"ZGI","icao":"CZGI","lat":"54.8397","longitude":"-94.0786","alt":"627","timezone":"-6","dst":"A","continent":"North America"},{"name":"Golden Airport","city":"Golden","country":"Canada","country_code":"CA","iata":"YGE","icao":"CYGE","lat":"51.2992","longitude":"-116.982","alt":"2575","timezone":"-7","dst":"A","continent":"North America"},{"name":"Goose Bay","city":"Goose Bay","country":"Canada","country_code":"CA","iata":"YYR","icao":"CYYR","lat":"53.319168","longitude":"-60.425833","alt":"160","timezone":"-4","dst":"A","continent":"North America"},{"name":"Gore Bay Manitoulin","city":"Gore Bay","country":"Canada","country_code":"CA","iata":"YZE","icao":"CYZE","lat":"45.885277","longitude":"-82.567778","alt":"635","timezone":"-5","dst":"A","continent":"North America"},{"name":"Grande Prairie","city":"Grande Prairie","country":"Canada","country_code":"CA","iata":"YQU","icao":"CYQU","lat":"55.179722","longitude":"-118.885","alt":"2195","timezone":"-7","dst":"A","continent":"North America"},{"name":"Greater Moncton Intl","city":"Moncton","country":"Canada","country_code":"CA","iata":"YQM","icao":"CYQM","lat":"46.112221","longitude":"-64.678611","alt":"232","timezone":"-4","dst":"A","continent":"North America"},{"name":"Greenwood","city":"Greenwood","country":"Canada","country_code":"CA","iata":"YZX","icao":"CYZX","lat":"44.984444","longitude":"-64.916944","alt":"92","timezone":"-4","dst":"A","continent":"North America"},{"name":"Grise Fiord Airport","city":"Grise Fiord","country":"Canada","country_code":"CA","iata":"YGZ","icao":"CYGZ","lat":"76.4261","longitude":"-82.9092","alt":"146","timezone":"-5","dst":"A","continent":"North America"},{"name":"Halifax Intl","city":"Halifax","country":"Canada","country_code":"CA","iata":"YHZ","icao":"CYHZ","lat":"44.880833","longitude":"-63.50861","alt":"477","timezone":"-4","dst":"A","continent":"North America"},{"name":"Hall Beach","city":"Hall Beach","country":"Canada","country_code":"CA","iata":"YUX","icao":"CYUX","lat":"68.776111","longitude":"-81.243611","alt":"27","timezone":"-5","dst":"A","continent":"North America"},{"name":"Hamilton","city":"Hamilton","country":"Canada","country_code":"CA","iata":"YHM","icao":"CYHM","lat":"43.173611","longitude":"-79.935","alt":"780","timezone":"-5","dst":"A","continent":"North America"},{"name":"Havre Saint-Pierre Airport","city":"Havre-Saint-Pierre","country":"Canada","country_code":"CA","iata":"YGV","icao":"CYGV","lat":"50.281944","longitude":"-63.611389","alt":"124","timezone":"-4","dst":"A","continent":"North America"},{"name":"Hay River","city":"Hay River","country":"Canada","country_code":"CA","iata":"YHY","icao":"CYHY","lat":"60.839722","longitude":"-115.782778","alt":"543","timezone":"-7","dst":"A","continent":"North America"},{"name":"High Level","city":"High Level","country":"Canada","country_code":"CA","iata":"YOJ","icao":"CYOJ","lat":"58.621389","longitude":"-117.164722","alt":"1110","timezone":"-7","dst":"A","continent":"North America"},{"name":"Hopedale Airport","city":"Hopedale","country":"Canada","country_code":"CA","iata":"YHO","icao":"CYHO","lat":"55.4483","longitude":"-60.2286","alt":"39","timezone":"-4","dst":"A","continent":"North America"},{"name":"Hornepayne","city":"Hornepayne","country":"Canada","country_code":"CA","iata":"YHN","icao":"CYHN","lat":"49.193056","longitude":"-84.758889","alt":"1099","timezone":"-5","dst":"A","continent":"North America"},{"name":"Hudson Bay","city":"Hudson Bay","country":"Canada","country_code":"CA","iata":"YHB","icao":"CYHB","lat":"52.816666","longitude":"-102.31139","alt":"1175","timezone":"-6","dst":"N","continent":"North America"},{"name":"Igloolik Airport","city":"Igloolik","country":"Canada","country_code":"CA","iata":"YGT","icao":"CYGT","lat":"69.3647","longitude":"-81.8161","alt":"174","timezone":"-5","dst":"A","continent":"North America"},{"name":"Iles De La Madeleine","city":"Iles De La Madeleine","country":"Canada","country_code":"CA","iata":"YGR","icao":"CYGR","lat":"47.424721","longitude":"-61.778056","alt":"35","timezone":"-4","dst":"A","continent":"North America"},{"name":"Ilford Airport","city":"Ilford","country":"Canada","country_code":"CA","iata":"ILF","icao":"CZBD","lat":"56.0614","longitude":"-95.6139","alt":"642","timezone":"-6","dst":"A","continent":"North America"},{"name":"Inukjuak Airport","city":"Inukjuak","country":"Canada","country_code":"CA","iata":"YPH","icao":"CYPH","lat":"58.4719","longitude":"-78.0769","alt":"83","timezone":"-5","dst":"A","continent":"North America"},{"name":"Inuvik Mike Zubko","city":"Inuvik","country":"Canada","country_code":"CA","iata":"YEV","icao":"CYEV","lat":"68.304167","longitude":"-133.482778","alt":"224","timezone":"-7","dst":"A","continent":"North America"},{"name":"Iqaluit","city":"Iqaluit","country":"Canada","country_code":"CA","iata":"YFB","icao":"CYFB","lat":"63.75639","longitude":"-68.555832","alt":"110","timezone":"-5","dst":"A","continent":"North America"},{"name":"Island Lake Airport","city":"Island Lake","country":"Canada","country_code":"CA","iata":"YIV","icao":"CYIV","lat":"53.8572","longitude":"-94.6536","alt":"770","timezone":"-6","dst":"A","continent":"North America"},{"name":"Ivujivik Airport","city":"Ivujivik","country":"Canada","country_code":"CA","iata":"YIK","icao":"CYIK","lat":"62.4173","longitude":"-77.9253","alt":"126","timezone":"-5","dst":"A","continent":"North America"},{"name":"Kamloops","city":"Kamloops","country":"Canada","country_code":"CA","iata":"YKA","icao":"CYKA","lat":"50.702222","longitude":"-120.444444","alt":"1133","timezone":"-8","dst":"A","continent":"North America"},{"name":"Kangiqsualujjuaq (Georges River) Airport","city":"Kangiqsualujjuaq","country":"Canada","country_code":"CA","iata":"XGR","icao":"CYLU","lat":"58.7114","longitude":"-65.9928","alt":"215","timezone":"-5","dst":"A","continent":"North America"},{"name":"Kangiqsujuaq - Wakeham Bay Airport","city":"Kangiqsujuaq","country":"Canada","country_code":"CA","iata":"YWB","icao":"CYKG","lat":"61.588611","longitude":"-71.929444","alt":"501","timezone":"-6","dst":"A","continent":"North America"},{"name":"Kangirsuk Airport","city":"Kangirsuk","country":"Canada","country_code":"CA","iata":"YKG","icao":"CYAS","lat":"60.0272","longitude":"-69.9992","alt":"403","timezone":"-5","dst":"A","continent":"North America"},{"name":"Kapuskasing","city":"Kapuskasing","country":"Canada","country_code":"CA","iata":"YYU","icao":"CYYU","lat":"49.413889","longitude":"-82.4675","alt":"743","timezone":"-5","dst":"A","continent":"North America"},{"name":"Kasabonika Airport","city":"Kasabonika","country":"Canada","country_code":"CA","iata":"XKS","icao":"CYAQ","lat":"53.5247","longitude":"-88.6428","alt":"672","timezone":"-5","dst":"A","continent":"North America"},{"name":"Kashechewan Airport","city":"Kashechewan","country":"Canada","country_code":"CA","iata":"ZKE","icao":"CZKE","lat":"52.2825","longitude":"-81.6778","alt":"35","timezone":"-5","dst":"A","continent":"North America"},{"name":"Keewaywin","city":"Keewaywin","country":"Canada","country_code":"CA","iata":"KEW","icao":"CPV8","lat":"52.991111","longitude":"-92.836389","alt":"988","timezone":"-5","dst":"A","continent":"North America"},{"name":"Kegaska Airport","city":"Kegaska","country":"Canada","country_code":"CA","iata":"ZKG","icao":"CTK6","lat":"50.195833","longitude":"-61.265833","alt":"32","timezone":"-4","dst":"A","continent":"North America"},{"name":"Kelowna","city":"Kelowna","country":"Canada","country_code":"CA","iata":"YLW","icao":"CYLW","lat":"49.956112","longitude":"-119.377778","alt":"1409","timezone":"-8","dst":"A","continent":"North America"},{"name":"Kenora","city":"Kenora","country":"Canada","country_code":"CA","iata":"YQK","icao":"CYQK","lat":"49.788334","longitude":"-94.363056","alt":"1332","timezone":"-6","dst":"A","continent":"North America"},{"name":"Kimmirut Airport","city":"Kimmirut","country":"Canada","country_code":"CA","iata":"YLC","icao":"CYLC","lat":"62.85","longitude":"-69.8833","alt":"175","timezone":"-5","dst":"A","continent":"North America"},{"name":"Kindersley","city":"Kindersley","country":"Canada","country_code":"CA","iata":"YKY","icao":"CYKY","lat":"51.5175","longitude":"-109.180833","alt":"2277","timezone":"-6","dst":"N","continent":"North America"},{"name":"Kingfisher Lake Airport","city":"Kingfisher Lake","country":"Canada","country_code":"CA","iata":"KIF","icao":"CNM5","lat":"53.0125","longitude":"-89.8553","alt":"866","timezone":"-5","dst":"A","continent":"North America"},{"name":"Kingston","city":"Kingston","country":"Canada","country_code":"CA","iata":"YGK","icao":"CYGK","lat":"44.225277","longitude":"-76.596944","alt":"305","timezone":"-5","dst":"A","continent":"North America"},{"name":"Kingston Train Station","city":"Kingston","country":"Canada","country_code":"CA","iata":"XEG","icao":"KGST","lat":"44.256944","longitude":"-76.536943","alt":"282","timezone":"-5","dst":"A","continent":"North America"},{"name":"Kirkland Lake","city":"Kirkland Lake","country":"Canada","country_code":"CA","iata":"YKX","icao":"CYKX","lat":"48.210278","longitude":"-79.981389","alt":"1157","timezone":"-5","dst":"A","continent":"North America"},{"name":"Kugaaruk","city":"Pelly Bay","country":"Canada","country_code":"CA","iata":"YBB","icao":"CYBB","lat":"68.534444","longitude":"-89.808056","alt":"56","timezone":"-6","dst":"A","continent":"North America"},{"name":"Kugluktuk","city":"Coppermine","country":"Canada","country_code":"CA","iata":"YCO","icao":"CYCO","lat":"67.816667","longitude":"-115.143889","alt":"74","timezone":"-7","dst":"A","continent":"North America"},{"name":"Kuujjuaq","city":"Quujjuaq","country":"Canada","country_code":"CA","iata":"YVP","icao":"CYVP","lat":"58.096111","longitude":"-68.426944","alt":"129","timezone":"-5","dst":"A","continent":"North America"},{"name":"Kuujjuarapik Airport","city":"Kuujjuarapik","country":"Canada","country_code":"CA","iata":"YGW","icao":"CYGW","lat":"55.2819","longitude":"-77.7653","alt":"34","timezone":"-5","dst":"A","continent":"North America"},{"name":"La Grande Riviere","city":"La Grande Riviere","country":"Canada","country_code":"CA","iata":"YGL","icao":"CYGL","lat":"53.625278","longitude":"-77.704167","alt":"639","timezone":"-5","dst":"A","continent":"North America"},{"name":"La Ronge","city":"La Ronge","country":"Canada","country_code":"CA","iata":"YVC","icao":"CYVC","lat":"55.15139","longitude":"-105.261944","alt":"1242","timezone":"-6","dst":"N","continent":"North America"},{"name":"La Tabati?re Airport","city":"La Tabati?re","country":"Canada","country_code":"CA","iata":"ZLT","icao":"CTU5","lat":"50.8308","longitude":"-58.9756","alt":"102","timezone":"-4","dst":"A","continent":"North America"},{"name":"Lac Brochet Airport","city":"Lac Brochet","country":"Canada","country_code":"CA","iata":"XLB","icao":"CZWH","lat":"58.614167","longitude":"-101.468889","alt":"1212","timezone":"-6","dst":"A","continent":"North America"},{"name":"Lansdowne House Airport","city":"Lansdowne House","country":"Canada","country_code":"CA","iata":"YLH","icao":"CYLH","lat":"52.1956","longitude":"-87.9342","alt":"834","timezone":"-5","dst":"A","continent":"North America"},{"name":"Lester B Pearson Intl","city":"Toronto","country":"Canada","country_code":"CA","iata":"YYZ","icao":"CYYZ","lat":"43.677223","longitude":"-79.630556","alt":"569","timezone":"-5","dst":"A","continent":"North America"},{"name":"Lethbridge","city":"Lethbridge","country":"Canada","country_code":"CA","iata":"YQL","icao":"CYQL","lat":"49.630278","longitude":"-112.799722","alt":"3047","timezone":"-7","dst":"A","continent":"North America"},{"name":"Little Grand Rapids Airport","city":"Little Grand Rapids","country":"Canada","country_code":"CA","iata":"ZGR","icao":"CZGR","lat":"52.045","longitude":"-95.466111","alt":"1008","timezone":"-7","dst":"A","continent":"North America"},{"name":"Lloydminster","city":"Lloydminster","country":"Canada","country_code":"CA","iata":"YLL","icao":"CYLL","lat":"53.309166","longitude":"-110.0725","alt":"2193","timezone":"-6","dst":"A","continent":"North America"},{"name":"London","city":"London","country":"Canada","country_code":"CA","iata":"YXU","icao":"CYXU","lat":"43.033056","longitude":"-81.151111","alt":"912","timezone":"-5","dst":"A","continent":"North America"},{"name":"Lourdes De Blanc Sablon Airport","city":"Lourdes-De-Blanc-Sablon","country":"Canada","country_code":"CA","iata":"YBX","icao":"CYBX","lat":"51.4436","longitude":"-57.1853","alt":"121","timezone":"-4","dst":"A","continent":"North America"},{"name":"Lutselk'e Airport","city":"Lutselk'e","country":"Canada","country_code":"CA","iata":"YSG","icao":"CYLK","lat":"62.4183","longitude":"-110.682","alt":"596","timezone":"-7","dst":"A","continent":"North America"},{"name":"Lynn Lake","city":"Lynn Lake","country":"Canada","country_code":"CA","iata":"YYL","icao":"CYYL","lat":"56.863888","longitude":"-101.07611","alt":"1170","timezone":"-6","dst":"A","continent":"North America"},{"name":"Mackenzie Airport","city":"Mackenzie British Columbia","country":"Canada","country_code":"CA","iata":"YZY","icao":"CYZY","lat":"55.29944","longitude":"-123.08333","alt":"2264","timezone":"-8","dst":"A","continent":"North America"},{"name":"Makkovik Airport","city":"Makkovik","country":"Canada","country_code":"CA","iata":"YMN","icao":"CYFT","lat":"55.0769","longitude":"-59.1864","alt":"234","timezone":"-4","dst":"A","continent":"North America"},{"name":"Manitoulin East","city":"Manitowaning","country":"Canada","country_code":"CA","iata":"YEM","icao":"CYEM","lat":"45.8425","longitude":"-81.8575","alt":"869","timezone":"-5","dst":"A","continent":"North America"},{"name":"Manitouwadge","city":"Manitouwadge","country":"Canada","country_code":"CA","iata":"YMG","icao":"CYMG","lat":"49.083889","longitude":"-85.860556","alt":"1198","timezone":"-5","dst":"A","continent":"North America"},{"name":"Maniwaki","city":"Maniwaki","country":"Canada","country_code":"CA","iata":"YMW","icao":"CYMW","lat":"46.272778","longitude":"-75.990556","alt":"656","timezone":"-5","dst":"A","continent":"North America"},{"name":"Marathon","city":"Marathon","country":"Canada","country_code":"CA","iata":"YSP","icao":"CYSP","lat":"48.755278","longitude":"-86.344444","alt":"1035","timezone":"-5","dst":"A","continent":"North America"},{"name":"Mary's Harbour Airport","city":"Mary's Harbour","country":"Canada","country_code":"CA","iata":"YMH","icao":"CYMH","lat":"52.3028","longitude":"-55.8472","alt":"38","timezone":"-4","dst":"A","continent":"North America"},{"name":"Masset Airport","city":"Masset","country":"Canada","country_code":"CA","iata":"ZMT","icao":"CZMT","lat":"54.0275","longitude":"-132.125","alt":"25","timezone":"-8","dst":"A","continent":"North America"},{"name":"Matagami","city":"Matagami","country":"Canada","country_code":"CA","iata":"YNM","icao":"CYNM","lat":"49.761667","longitude":"-77.802778","alt":"918","timezone":"-5","dst":"A","continent":"North America"},{"name":"Mayo","city":"Mayo","country":"Canada","country_code":"CA","iata":"YMA","icao":"CYMA","lat":"63.616389","longitude":"-135.868333","alt":"1653","timezone":"-8","dst":"A","continent":"North America"},{"name":"Meadow Lake","city":"Meadow Lake","country":"Canada","country_code":"CA","iata":"YLJ","icao":"CYLJ","lat":"54.125278","longitude":"-108.522778","alt":"1576","timezone":"-6","dst":"N","continent":"North America"},{"name":"Medicine Hat","city":"Medicine Hat","country":"Canada","country_code":"CA","iata":"YXH","icao":"CYXH","lat":"50.01889","longitude":"-110.720833","alt":"2352","timezone":"-7","dst":"A","continent":"North America"},{"name":"Miramichi","city":"Chatham","country":"Canada","country_code":"CA","iata":"YCH","icao":"CYCH","lat":"47.007778","longitude":"-65.449167","alt":"108","timezone":"-4","dst":"A","continent":"North America"},{"name":"Mont Joli","city":"Mont Joli","country":"Canada","country_code":"CA","iata":"YYY","icao":"CYYY","lat":"48.608612","longitude":"-68.208056","alt":"172","timezone":"-5","dst":"A","continent":"North America"},{"name":"Montreal Intl Mirabel","city":"Montreal","country":"Canada","country_code":"CA","iata":"YMX","icao":"CYMX","lat":"45.681944","longitude":"-74.005278","alt":"270","timezone":"-5","dst":"A","continent":"North America"},{"name":"Moose Jaw Air Vice Marshal C M Mcewen","city":"Moose Jaw","country":"Canada","country_code":"CA","iata":"YMJ","icao":"CYMJ","lat":"50.330278","longitude":"-105.559167","alt":"1892","timezone":"-6","dst":"N","continent":"North America"},{"name":"Moosonee","city":"Moosonee","country":"Canada","country_code":"CA","iata":"YMO","icao":"CYMO","lat":"51.291111","longitude":"-80.607778","alt":"30","timezone":"-5","dst":"A","continent":"North America"},{"name":"Muskoka","city":"Muskoka","country":"Canada","country_code":"CA","iata":"YQA","icao":"CYQA","lat":"44.974722","longitude":"-79.303333","alt":"925","timezone":"-5","dst":"A","continent":"North America"},{"name":"Muskrat Dam Airport","city":"Muskrat Dam","country":"Canada","country_code":"CA","iata":"MSA","icao":"CZMD","lat":"53.4414","longitude":"-91.7628","alt":"911","timezone":"-6","dst":"A","continent":"North America"},{"name":"Nain Airport","city":"Nain","country":"Canada","country_code":"CA","iata":"YDP","icao":"CYDP","lat":"56.5492","longitude":"-61.6803","alt":"22","timezone":"-4","dst":"A","continent":"North America"},{"name":"Nakina Airport","city":"Nakina","country":"Canada","country_code":"CA","iata":"YQN","icao":"CYQN","lat":"50.182777","longitude":"-86.696388","alt":"1057","timezone":"-5","dst":"A","continent":"North America"},{"name":"Nanaimo","city":"Nanaimo","country":"Canada","country_code":"CA","iata":"YCD","icao":"CYCD","lat":"49.052333","longitude":"-123.870167","alt":"93","timezone":"-8","dst":"A","continent":"North America"},{"name":"Nanaimo Harbour Water Airport","city":"Nanaimo","country":"Canada","country_code":"CA","iata":"ZNA","icao":"CAC8","lat":"49.183333","longitude":"-123.95","alt":"0","timezone":"-8","dst":"A","continent":"North America"},{"name":"Nanisivik","city":"Nanisivik","country":"Canada","country_code":"CA","iata":"YSR","icao":"CYSR","lat":"72.982222","longitude":"-84.613611","alt":"2106","timezone":"-5","dst":"A","continent":"North America"},{"name":"Natashquan","city":"Natashquan","country":"Canada","country_code":"CA","iata":"YNA","icao":"CYNA","lat":"50.19","longitude":"-61.789167","alt":"39","timezone":"-4","dst":"A","continent":"North America"},{"name":"Nemiscau Airport","city":"Nemiscau","country":"Canada","country_code":"CA","iata":"YNS","icao":"CYHH","lat":"51.6911","longitude":"-76.1356","alt":"802","timezone":"-5","dst":"A","continent":"North America"},{"name":"Norman Wells","city":"Norman Wells","country":"Canada","country_code":"CA","iata":"YVQ","icao":"CYVQ","lat":"65.281617","longitude":"-126.798219","alt":"238","timezone":"-7","dst":"A","continent":"North America"},{"name":"North Battleford","city":"North Battleford","country":"Canada","country_code":"CA","iata":"YQW","icao":"CYQW","lat":"52.769167","longitude":"-108.24361","alt":"1799","timezone":"-6","dst":"N","continent":"North America"},{"name":"North Bay","city":"North Bay","country":"Canada","country_code":"CA","iata":"YYB","icao":"CYYB","lat":"46.363611","longitude":"-79.422778","alt":"1215","timezone":"-5","dst":"A","continent":"North America"},{"name":"North Spirit Lake Airport","city":"North Spirit Lake","country":"Canada","country_code":"CA","iata":"YNO","icao":"CKQ3","lat":"52.49","longitude":"-92.9711","alt":"1082","timezone":"-6","dst":"A","continent":"North America"},{"name":"Norway House Airport","city":"Norway House","country":"Canada","country_code":"CA","iata":"YNE","icao":"CYNE","lat":"53.9583","longitude":"-97.8442","alt":"734","timezone":"-6","dst":"A","continent":"North America"},{"name":"Ogoki Post Airport","city":"Ogoki Post","country":"Canada","country_code":"CA","iata":"YOG","icao":"CNT3","lat":"51.6586","longitude":"-85.9017","alt":"594","timezone":"-5","dst":"A","continent":"North America"},{"name":"Old Crow","city":"Old Crow","country":"Canada","country_code":"CA","iata":"YOC","icao":"CYOC","lat":"67.570556","longitude":"-139.839167","alt":"824","timezone":"-8","dst":"A","continent":"North America"},{"name":"Oshawa Airport","city":"Oshawa","country":"Canada","country_code":"CA","iata":"YOO","icao":"CYOO","lat":"43.9228","longitude":"-78.895","alt":"459","timezone":"-5","dst":"A","continent":"North America"},{"name":"Ottawa Macdonald Cartier Intl","city":"Ottawa","country":"Canada","country_code":"CA","iata":"YOW","icao":"CYOW","lat":"45.3225","longitude":"-75.669167","alt":"374","timezone":"-5","dst":"A","continent":"North America"},{"name":"Oxford House Airport","city":"Oxford House","country":"Canada","country_code":"CA","iata":"YOH","icao":"CYOH","lat":"54.9333","longitude":"-95.2789","alt":"663","timezone":"-6","dst":"A","continent":"North America"},{"name":"Pangnirtung","city":"Pangnirtung","country":"Canada","country_code":"CA","iata":"YXP","icao":"CYXP","lat":"66.145","longitude":"-65.713611","alt":"75","timezone":"-5","dst":"A","continent":"North America"},{"name":"Paulatuk","city":"Paulatuk","country":"Canada","country_code":"CA","iata":"YPC","icao":"CYPC","lat":"62.35","longitude":"-124.3333","alt":"50","timezone":"-7","dst":"A","continent":"North America"},{"name":"Peace River","city":"Peace River","country":"Canada","country_code":"CA","iata":"YPE","icao":"CYPE","lat":"56.226944","longitude":"-117.447222","alt":"1873","timezone":"-7","dst":"A","continent":"North America"},{"name":"Peawanuck Airport","city":"Peawanuck","country":"Canada","country_code":"CA","iata":"YPO","icao":"CYPO","lat":"54.9881","longitude":"-85.4433","alt":"173","timezone":"-5","dst":"A","continent":"North America"},{"name":"Pembroke Airport","city":"Pembroke","country":"Canada","country_code":"CA","iata":"YTA","icao":"CYTA","lat":"45.864399","longitude":"-77.251701","alt":"529","timezone":"-5","dst":"A","continent":"North America"},{"name":"Penticton","city":"Penticton","country":"Canada","country_code":"CA","iata":"YYF","icao":"CYYF","lat":"49.463056","longitude":"-119.602222","alt":"1129","timezone":"-8","dst":"A","continent":"North America"},{"name":"Petawawa","city":"Petawawa","country":"Canada","country_code":"CA","iata":"YWA","icao":"CYWA","lat":"45.952221","longitude":"-77.319168","alt":"427","timezone":"-5","dst":"A","continent":"North America"},{"name":"Peterborough","city":"Peterborough","country":"Canada","country_code":"CA","iata":"YPQ","icao":"CYPQ","lat":"44.23","longitude":"-78.363333","alt":"628","timezone":"-5","dst":"A","continent":"North America"},{"name":"Pickle Lake","city":"Pickle Lake","country":"Canada","country_code":"CA","iata":"YPL","icao":"CYPL","lat":"51.446388","longitude":"-90.214167","alt":"1267","timezone":"-6","dst":"A","continent":"North America"},{"name":"Pierre Elliott Trudeau Intl","city":"Montreal","country":"Canada","country_code":"CA","iata":"YUL","icao":"CYUL","lat":"45.470556","longitude":"-73.740833","alt":"118","timezone":"-5","dst":"A","continent":"North America"},{"name":"Pikangikum Airport","city":"Pikangikum","country":"Canada","country_code":"CA","iata":"YPM","icao":"CYPM","lat":"51.8197","longitude":"-93.9733","alt":"1114","timezone":"-6","dst":"A","continent":"North America"},{"name":"Points North Landing Airport","city":"Points North Landing","country":"Canada","country_code":"CA","iata":"YNL","icao":"CYNL","lat":"58.2767","longitude":"-104.082","alt":"1605","timezone":"-6","dst":"N","continent":"North America"},{"name":"Pond Inlet","city":"Pond Inlet","country":"Canada","country_code":"CA","iata":"YIO","icao":"CYIO","lat":"72.683334","longitude":"-77.966667","alt":"181","timezone":"-5","dst":"A","continent":"North America"},{"name":"Poplar Hill Airport","city":"Poplar Hill","country":"Canada","country_code":"CA","iata":"YHP","icao":"CPV7","lat":"52.1133","longitude":"-94.2556","alt":"1095","timezone":"-6","dst":"A","continent":"North America"},{"name":"Port Hardy","city":"Port Hardy","country":"Canada","country_code":"CA","iata":"YZT","icao":"CYZT","lat":"50.680556","longitude":"-127.366667","alt":"71","timezone":"-8","dst":"A","continent":"North America"},{"name":"Port Hope Simpson Airport","city":"Port Hope Simpson","country":"Canada","country_code":"CA","iata":"YHA","icao":"CCP4","lat":"52.5281","longitude":"-56.2861","alt":"347","timezone":"-4","dst":"A","continent":"North America"},{"name":"Port Menier","city":"Port Menier","country":"Canada","country_code":"CA","iata":"YPN","icao":"CYPN","lat":"49.836389","longitude":"-64.288611","alt":"167","timezone":"-5","dst":"A","continent":"North America"},{"name":"Postville Airport","city":"Postville","country":"Canada","country_code":"CA","iata":"YSO","icao":"CCD4","lat":"54.910278","longitude":"-59.785278","alt":"223","timezone":"-4","dst":"A","continent":"North America"},{"name":"Powell River Airport","city":"Powell River","country":"Canada","country_code":"CA","iata":"YPW","icao":"CYPW","lat":"49.8342","longitude":"-124.5","alt":"425","timezone":"-8","dst":"A","continent":"North America"},{"name":"Prince Albert Glass Field","city":"Prince Albert","country":"Canada","country_code":"CA","iata":"YPA","icao":"CYPA","lat":"53.214167","longitude":"-105.672778","alt":"1405","timezone":"-6","dst":"N","continent":"North America"},{"name":"Prince George","city":"Prince George","country":"Canada","country_code":"CA","iata":"YXS","icao":"CYXS","lat":"53.889444","longitude":"-122.678889","alt":"2267","timezone":"-8","dst":"A","continent":"North America"},{"name":"Prince Rupert","city":"Prince Pupert","country":"Canada","country_code":"CA","iata":"YPR","icao":"CYPR","lat":"54.28611","longitude":"-130.444722","alt":"116","timezone":"-8","dst":"A","continent":"North America"},{"name":"Princeton","city":"Princeton","country":"Canada","country_code":"CA","iata":"YDC","icao":"CYDC","lat":"49.468056","longitude":"-120.511389","alt":"2298","timezone":"-8","dst":"A","continent":"North America"},{"name":"Puvirnituq Airport","city":"Puvirnituq","country":"Canada","country_code":"CA","iata":"YPX","icao":"CYPX","lat":"60.0506","longitude":"-77.2869","alt":"74","timezone":"-5","dst":"A","continent":"North America"},{"name":"Qikiqtarjuaq","city":"Broughton Island","country":"Canada","country_code":"CA","iata":"YVM","icao":"CYVM","lat":"67.545833","longitude":"-64.031389","alt":"21","timezone":"-5","dst":"A","continent":"North America"},{"name":"Qualicum Beach Airport","city":"Qualicum Beach","country":"Canada","country_code":"CA","iata":"XQU","icao":"N","lat":"49.337222","longitude":"-124.393889","alt":"191","timezone":"-8","dst":"A","continent":"North America"},{"name":"Quaqtaq Airport","city":"Quaqtaq","country":"Canada","country_code":"CA","iata":"YQC","icao":"CYHA","lat":"61.0464","longitude":"-69.6178","alt":"103","timezone":"-5","dst":"A","continent":"North America"},{"name":"Quebec Jean Lesage Intl","city":"Quebec","country":"Canada","country_code":"CA","iata":"YQB","icao":"CYQB","lat":"46.791111","longitude":"-71.393333","alt":"244","timezone":"-5","dst":"A","continent":"North America"},{"name":"Quesnel","city":"Quesnel","country":"Canada","country_code":"CA","iata":"YQZ","icao":"CYQZ","lat":"53.026112","longitude":"-122.510278","alt":"1789","timezone":"-8","dst":"A","continent":"North America"},{"name":"Rae Lakes Airport","city":"Gam?t?","country":"Canada","country_code":"CA","iata":"YRA","icao":"CYRA","lat":"64.1161","longitude":"-117.31","alt":"723","timezone":"-7","dst":"A","continent":"North America"},{"name":"Rainbow Lake Airport","city":"Rainbow Lake","country":"Canada","country_code":"CA","iata":"YOP","icao":"CYOP","lat":"58.491389","longitude":"-119.407778","alt":"1756","timezone":"-7","dst":"A","continent":"North America"},{"name":"Rankin Inlet","city":"Rankin Inlet","country":"Canada","country_code":"CA","iata":"YRT","icao":"CYRT","lat":"62.81139","longitude":"-92.115833","alt":"94","timezone":"-6","dst":"A","continent":"North America"},{"name":"Red Deer Regional","city":"Red Deer Industrial","country":"Canada","country_code":"CA","iata":"YQF","icao":"CYQF","lat":"52.182222","longitude":"-113.894444","alt":"2968","timezone":"-7","dst":"A","continent":"North America"},{"name":"Red Lake Airport","city":"Red Lake","country":"Canada","country_code":"CA","iata":"YRL","icao":"CYRL","lat":"51.0669","longitude":"-93.7931","alt":"1265","timezone":"-6","dst":"A","continent":"North America"},{"name":"Red Sucker Lake Airport","city":"Red Sucker Lake","country":"Canada","country_code":"CA","iata":"YRS","icao":"CYRS","lat":"54.167222","longitude":"-93.557222","alt":"729","timezone":"-7","dst":"A","continent":"North America"},{"name":"Regina Intl","city":"Regina","country":"Canada","country_code":"CA","iata":"YQR","icao":"CYQR","lat":"50.431944","longitude":"-104.665833","alt":"1894","timezone":"-6","dst":"N","continent":"North America"},{"name":"Rene Fontaine","city":"Hearst","country":"Canada","country_code":"CA","iata":"YHF","icao":"CYHF","lat":"49.713889","longitude":"-83.686944","alt":"826","timezone":"-5","dst":"A","continent":"North America"},{"name":"Repulse Bay","city":"Repulse Bay","country":"Canada","country_code":"CA","iata":"YUT","icao":"CYUT","lat":"66.521389","longitude":"-86.224722","alt":"80","timezone":"-6","dst":"A","continent":"North America"},{"name":"Resolute Bay","city":"Resolute","country":"Canada","country_code":"CA","iata":"YRB","icao":"CYRB","lat":"74.716944","longitude":"-94.969444","alt":"215","timezone":"-6","dst":"A","continent":"North America"},{"name":"Revelstoke Airport","city":"Revelstoke","country":"Canada","country_code":"CA","iata":"YRV","icao":"CYRV","lat":"50.9667","longitude":"-118.183","alt":"1459","timezone":"-8","dst":"A","continent":"North America"},{"name":"Rigolet Airport","city":"Rigolet","country":"Canada","country_code":"CA","iata":"YRG","icao":"CCZ2","lat":"54.1797","longitude":"-58.4575","alt":"180","timezone":"-4","dst":"A","continent":"North America"},{"name":"Rimouski Airport","city":"Rimouski","country":"Canada","country_code":"CA","iata":"YXK","icao":"CYXK","lat":"48.478056","longitude":"-68.496944","alt":"82","timezone":"-6","dst":"A","continent":"North America"},{"name":"Riviere Du Loup","city":"Riviere Du Loup","country":"Canada","country_code":"CA","iata":"YRI","icao":"CYRI","lat":"47.764444","longitude":"-69.584722","alt":"427","timezone":"-5","dst":"A","continent":"North America"},{"name":"Riviere Rouge - Mont-Tremblant International Inc. ","city":"Mont-Tremblant","country":"Canada","country_code":"CA","iata":"YTM","icao":"CYFJ","lat":"46.409444","longitude":"-74.78","alt":"827","timezone":"-5","dst":"A","continent":"North America"},{"name":"Roberval","city":"Roberval","country":"Canada","country_code":"CA","iata":"YRJ","icao":"CYRJ","lat":"48.52","longitude":"-72.265556","alt":"586","timezone":"-5","dst":"A","continent":"North America"},{"name":"Rocky Mountain House","city":"Rocky Mountain House","country":"Canada","country_code":"CA","iata":"YRM","icao":"CYRM","lat":"52.429722","longitude":"-114.904167","alt":"3244","timezone":"-7","dst":"A","continent":"North America"},{"name":"Round Lake (Weagamow Lake) Airport","city":"Round Lake","country":"Canada","country_code":"CA","iata":"ZRJ","icao":"CZRJ","lat":"52.9436","longitude":"-91.3128","alt":"974","timezone":"-6","dst":"A","continent":"North America"},{"name":"Rouyn Noranda","city":"Rouyn","country":"Canada","country_code":"CA","iata":"YUY","icao":"CYUY","lat":"48.206111","longitude":"-78.835556","alt":"988","timezone":"-5","dst":"A","continent":"North America"},{"name":"Sachigo Lake Airport","city":"Sachigo Lake","country":"Canada","country_code":"CA","iata":"ZPB","icao":"CZPB","lat":"53.8911","longitude":"-92.1964","alt":"876","timezone":"-6","dst":"A","continent":"North America"},{"name":"Sachs Harbour","city":"Sachs Harbour","country":"Canada","country_code":"CA","iata":"YSY","icao":"CYSY","lat":"71.993889","longitude":"-125.2425","alt":"282","timezone":"-7","dst":"A","continent":"North America"},{"name":"Saint John","city":"St. John","country":"Canada","country_code":"CA","iata":"YSJ","icao":"CYSJ","lat":"45.316111","longitude":"-65.890278","alt":"357","timezone":"-4","dst":"A","continent":"North America"},{"name":"Salluit Airport","city":"Salluit","country":"Canada","country_code":"CA","iata":"YZG","icao":"CYZG","lat":"62.1794","longitude":"-75.6672","alt":"743","timezone":"-5","dst":"A","continent":"North America"},{"name":"Sandspit","city":"Sandspit","country":"Canada","country_code":"CA","iata":"YZP","icao":"CYZP","lat":"53.254333","longitude":"-131.813833","alt":"21","timezone":"-8","dst":"A","continent":"North America"},{"name":"Sandy Lake Airport","city":"Sandy Lake","country":"Canada","country_code":"CA","iata":"ZSJ","icao":"CZSJ","lat":"53.0642","longitude":"-93.3444","alt":"951","timezone":"-6","dst":"A","continent":"North America"},{"name":"Sanikiluaq Airport","city":"Sanikiluaq","country":"Canada","country_code":"CA","iata":"YSK","icao":"CYSK","lat":"56.5378","longitude":"-79.2467","alt":"104","timezone":"-5","dst":"A","continent":"North America"},{"name":"Saskatoon J G Diefenbaker Intl","city":"Saskatoon","country":"Canada","country_code":"CA","iata":"YXE","icao":"CYXE","lat":"52.170834","longitude":"-106.699722","alt":"1653","timezone":"-6","dst":"N","continent":"North America"},{"name":"Sault Ste Marie","city":"Sault Sainte Marie","country":"Canada","country_code":"CA","iata":"YAM","icao":"CYAM","lat":"46.485001","longitude":"-84.509445","alt":"630","timezone":"-5","dst":"A","continent":"North America"},{"name":"Schefferville","city":"Schefferville","country":"Canada","country_code":"CA","iata":"YKL","icao":"CYKL","lat":"54.805278","longitude":"-66.805278","alt":"1709","timezone":"-4","dst":"A","continent":"North America"},{"name":"Seal Cove Seaplane Base","city":"Prince Rupert","country":"Canada","country_code":"CA","iata":"ZSW","icao":"CZSW","lat":"54.3333","longitude":"-130.283","alt":"0","timezone":"-8","dst":"A","continent":"North America"},{"name":"Seaplane Base","city":"Port Simpson","country":"Canada","country_code":"CA","iata":"YPI","icao":"CYPI","lat":"54.566667","longitude":"-130.433333","alt":"0","timezone":"-8","dst":"A","continent":"North America"},{"name":"Sechelt Aerodrome","city":"Sechelt-Gibsons","country":"Canada","country_code":"CA","iata":"YHS","icao":"N","lat":"49.460556","longitude":"-123.718611","alt":"250","timezone":"-8","dst":"A","continent":"North America"},{"name":"Sept Iles","city":"Sept-iles","country":"Canada","country_code":"CA","iata":"YZV","icao":"CYZV","lat":"50.223333","longitude":"-66.265556","alt":"180","timezone":"-5","dst":"A","continent":"North America"},{"name":"Shamattawa Airport","city":"Shamattawa","country":"Canada","country_code":"CA","iata":"ZTM","icao":"CZTM","lat":"55.8656","longitude":"-92.0814","alt":"289","timezone":"-6","dst":"A","continent":"North America"},{"name":"Shearwater","city":"Halifax","country":"Canada","country_code":"CA","iata":"YAW","icao":"CYAW","lat":"44.639721","longitude":"-63.499444","alt":"167","timezone":"-4","dst":"A","continent":"North America"},{"name":"Sherbrooke","city":"Sherbrooke","country":"Canada","country_code":"CA","iata":"YSC","icao":"CYSC","lat":"45.438611","longitude":"-71.691389","alt":"792","timezone":"-5","dst":"A","continent":"North America"},{"name":"Sioux Lookout","city":"Sioux Lookout","country":"Canada","country_code":"CA","iata":"YXL","icao":"CYXL","lat":"50.113889","longitude":"-91.905278","alt":"1258","timezone":"-6","dst":"A","continent":"North America"},{"name":"Slave Lake","city":"Slave Lake","country":"Canada","country_code":"CA","iata":"YZH","icao":"CYZH","lat":"55.293056","longitude":"-114.777222","alt":"1912","timezone":"-7","dst":"A","continent":"North America"},{"name":"Smithers","city":"Smithers","country":"Canada","country_code":"CA","iata":"YYD","icao":"CYYD","lat":"54.824722","longitude":"-127.182778","alt":"1712","timezone":"-8","dst":"A","continent":"North America"},{"name":"South Cariboo Regional Airport","city":"108 Mile Ranch","country":"Canada","country_code":"CA","iata":"ZML","icao":"CZML","lat":"51.4412","longitude":"-121.1958","alt":"3129","timezone":"-8","dst":"A","continent":"North America"},{"name":"South Indian Lake Airport","city":"South Indian Lake","country":"Canada","country_code":"CA","iata":"XSI","icao":"CZSN","lat":"56.792778","longitude":"-98.907222","alt":"951","timezone":"-7","dst":"A","continent":"North America"},{"name":"Southport","city":"Portage-la-prairie","country":"Canada","country_code":"CA","iata":"YPG","icao":"CYPG","lat":"49.903056","longitude":"-98.273889","alt":"885","timezone":"-6","dst":"A","continent":"North America"},{"name":"St Anthony","city":"St. Anthony","country":"Canada","country_code":"CA","iata":"YAY","icao":"CYAY","lat":"51.391944","longitude":"-56.083056","alt":"108","timezone":"-4","dst":"A","continent":"North America"},{"name":"St Augustin Airport","city":"St-Augustin","country":"Canada","country_code":"CA","iata":"YIF","icao":"CYIF","lat":"51.2117","longitude":"-58.6583","alt":"20","timezone":"-4","dst":"A","continent":"North America"},{"name":"St Hubert","city":"Montreal","country":"Canada","country_code":"CA","iata":"YHU","icao":"CYHU","lat":"45.5175","longitude":"-73.416944","alt":"90","timezone":"-5","dst":"A","continent":"North America"},{"name":"St Jean","city":"St. Jean","country":"Canada","country_code":"CA","iata":"YJN","icao":"CYJN","lat":"45.294445","longitude":"-73.281111","alt":"136","timezone":"-5","dst":"A","continent":"North America"},{"name":"St Johns Intl","city":"St. John's","country":"Canada","country_code":"CA","iata":"YYT","icao":"CYYT","lat":"47.61861","longitude":"-52.751945","alt":"461","timezone":"-3.5","dst":"A","continent":"North America"},{"name":"St. Lewis (Fox Harbour) Airport","city":"St. Lewis","country":"Canada","country_code":"CA","iata":"YFX","icao":"CCK4","lat":"52.3728","longitude":"-55.6739","alt":"74","timezone":"-4","dst":"A","continent":"North America"},{"name":"St. Theresa Point Airport","city":"St. Theresa Point","country":"Canada","country_code":"CA","iata":"YST","icao":"CYST","lat":"53.8456","longitude":"-94.8519","alt":"773","timezone":"-6","dst":"A","continent":"North America"},{"name":"Stephenville","city":"Stephenville","country":"Canada","country_code":"CA","iata":"YJT","icao":"CYJT","lat":"48.544167","longitude":"-58.549999","alt":"80","timezone":"-4","dst":"A","continent":"North America"},{"name":"Stony Rapids Airport","city":"Stony Rapids","country":"Canada","country_code":"CA","iata":"YSF","icao":"CYSF","lat":"59.2503","longitude":"-105.841","alt":"805","timezone":"-6","dst":"N","continent":"North America"},{"name":"Sudbury","city":"Sudbury","country":"Canada","country_code":"CA","iata":"YSB","icao":"CYSB","lat":"46.625","longitude":"-80.798889","alt":"1141","timezone":"-5","dst":"A","continent":"North America"},{"name":"Suffield Heliport","city":"Suffield","country":"Canada","country_code":"CA","iata":"YSD","icao":"CYSD","lat":"50.2666701","longitude":"-111.182999","alt":"2525","timezone":"-7","dst":"A","continent":"North America"},{"name":"Summer Beaver Airport","city":"Summer Beaver","country":"Canada","country_code":"CA","iata":"SUR","icao":"CJV7","lat":"52.7086","longitude":"-88.5419","alt":"832","timezone":"-5","dst":"A","continent":"North America"},{"name":"Summerside","city":"Summerside","country":"Canada","country_code":"CA","iata":"YSU","icao":"CYSU","lat":"46.440556","longitude":"-63.833611","alt":"56","timezone":"-4","dst":"A","continent":"North America"},{"name":"Swan River Airport","city":"Swan River","country":"Canada","country_code":"CA","iata":"ZJN","icao":"CZJN","lat":"52.1206","longitude":"-101.236","alt":"1100","timezone":"-6","dst":"A","continent":"North America"},{"name":"Swift Current","city":"Swift Current","country":"Canada","country_code":"CA","iata":"YYN","icao":"CYYN","lat":"50.291944","longitude":"-107.690556","alt":"2680","timezone":"-6","dst":"N","continent":"North America"},{"name":"Sydney","city":"Sydney","country":"Canada","country_code":"CA","iata":"YQY","icao":"CYQY","lat":"46.161388","longitude":"-60.047779","alt":"203","timezone":"-4","dst":"A","continent":"North America"},{"name":"T?te-?-la-Baleine Airport","city":"T?te-?-la-Baleine","country":"Canada","country_code":"CA","iata":"ZTB","icao":"CTB6","lat":"50.6744","longitude":"-59.3836","alt":"107","timezone":"-4","dst":"A","continent":"North America"},{"name":"Tadoule Lake Airport","city":"Tadoule Lake","country":"Canada","country_code":"CA","iata":"XTL","icao":"CYBQ","lat":"58.706111","longitude":"-98.512222","alt":"923","timezone":"-7","dst":"A","continent":"North America"},{"name":"Taloyoak","city":"Spence Bay","country":"Canada","country_code":"CA","iata":"YYH","icao":"CYYH","lat":"69.546667","longitude":"-93.576667","alt":"92","timezone":"-6","dst":"A","continent":"North America"},{"name":"Tasiujaq Airport","city":"Tasiujaq","country":"Canada","country_code":"CA","iata":"YTQ","icao":"CYTQ","lat":"58.6678","longitude":"-69.9558","alt":"122","timezone":"-5","dst":"A","continent":"North America"},{"name":"Terrace","city":"Terrace","country":"Canada","country_code":"CA","iata":"YXT","icao":"CYXT","lat":"54.468508","longitude":"-128.576219","alt":"713","timezone":"-8","dst":"A","continent":"North America"},{"name":"Teslin","city":"Teslin","country":"Canada","country_code":"CA","iata":"YZW","icao":"CYZW","lat":"60.172779","longitude":"-132.742778","alt":"2313","timezone":"-8","dst":"A","continent":"North America"},{"name":"Texada Gillies Bay Airport","city":"Texada","country":"Canada","country_code":"CA","iata":"YGB","icao":"CYGB","lat":"49.6942","longitude":"-124.518","alt":"326","timezone":"-8","dst":"A","continent":"North America"},{"name":"The Pas Airport","city":"The Pas","country":"Canada","country_code":"CA","iata":"YQD","icao":"CYQD","lat":"53.9714","longitude":"-101.091","alt":"887","timezone":"-6","dst":"A","continent":"North America"},{"name":"Thompson","city":"Thompson","country":"Canada","country_code":"CA","iata":"YTH","icao":"CYTH","lat":"55.801111","longitude":"-97.864166","alt":"729","timezone":"-6","dst":"A","continent":"North America"},{"name":"Thunder Bay","city":"Thunder Bay","country":"Canada","country_code":"CA","iata":"YQT","icao":"CYQT","lat":"48.371944","longitude":"-89.323889","alt":"653","timezone":"-5","dst":"A","continent":"North America"},{"name":"Timiskaming Rgnl","city":"Earlton","country":"Canada","country_code":"CA","iata":"YXR","icao":"CYXR","lat":"47.695","longitude":"-79.848889","alt":"798","timezone":"-5","dst":"A","continent":"North America"},{"name":"Timmins","city":"Timmins","country":"Canada","country_code":"CA","iata":"YTS","icao":"CYTS","lat":"48.569721","longitude":"-81.376667","alt":"967","timezone":"-5","dst":"A","continent":"North America"},{"name":"Tofino","city":"Tofino","country":"Canada","country_code":"CA","iata":"YAZ","icao":"CYAZ","lat":"49.082222","longitude":"-125.7725","alt":"80","timezone":"-8","dst":"A","continent":"North America"},{"name":"Trail Airport","city":"Trail","country":"Canada","country_code":"CA","iata":"YZZ","icao":"CAD4","lat":"49.055556","longitude":"-117.609167","alt":"1427","timezone":"-8","dst":"A","continent":"North America"},{"name":"Train Station","city":"Ottawa","country":"Canada","country_code":"CA","iata":"XDS","icao":"N","lat":"45.4164","longitude":"-75.6517","alt":"374","timezone":"-5","dst":"A","continent":"North America"},{"name":"Train Station","city":"Belleville","country":"Canada","country_code":"CA","iata":"XVV","icao":"N","lat":"44.1793","longitude":"-77.3747","alt":"315","timezone":"-5","dst":"A","continent":"North America"},{"name":"Train Station","city":"Edmonton","country":"Canada","country_code":"CA","iata":"XZL","icao":"N","lat":"53.5789","longitude":"-113.5307","alt":"2208","timezone":"-7","dst":"A","continent":"North America"},{"name":"Train Station","city":"Churchill","country":"Canada","country_code":"CA","iata":"XAD","icao":"N","lat":"58.76775","longitude":"-94.17425","alt":"10","timezone":"-6","dst":"A","continent":"North America"},{"name":"Train Station","city":"Winnipeg","country":"Canada","country_code":"CA","iata":"XEF","icao":"N","lat":"49.8889","longitude":"-97.1342","alt":"751","timezone":"-6","dst":"A","continent":"North America"},{"name":"Trenton","city":"Trenton","country":"Canada","country_code":"CA","iata":"YTR","icao":"CYTR","lat":"44.118889","longitude":"-77.528056","alt":"283","timezone":"-5","dst":"A","continent":"North America"},{"name":"Tuktoyaktuk","city":"Tuktoyaktuk","country":"Canada","country_code":"CA","iata":"YUB","icao":"CYUB","lat":"69.433334","longitude":"-133.026389","alt":"15","timezone":"-7","dst":"A","continent":"North America"},{"name":"Tulita","city":"Tulita","country":"Canada","country_code":"CA","iata":"ZFN","icao":"CZFN","lat":"64.0833333","longitude":"-125.5833333","alt":"320","timezone":"-7","dst":"A","continent":"North America"},{"name":"Ulukhaktok Holman","city":"Holman Island","country":"Canada","country_code":"CA","iata":"YHI","icao":"CYHI","lat":"70.762778","longitude":"-117.806111","alt":"117","timezone":"-7","dst":"A","continent":"North America"},{"name":"Umiujaq Airport","city":"Umiujaq","country":"Canada","country_code":"CA","iata":"YUD","icao":"CYMU","lat":"56.5361","longitude":"-76.5183","alt":"250","timezone":"-5","dst":"A","continent":"North America"},{"name":"Union Station","city":"Toronto","country":"Canada","country_code":"CA","iata":"YBZ","icao":"N","lat":"43.645278","longitude":"-79.380556","alt":"0","timezone":"-5","dst":"A","continent":"North America"},{"name":"Uranium City Airport","city":"Uranium City","country":"Canada","country_code":"CA","iata":"YBE","icao":"CYBE","lat":"59.5614","longitude":"-108.481","alt":"1044","timezone":"-6","dst":"N","continent":"North America"},{"name":"Val D Or","city":"Val D'or","country":"Canada","country_code":"CA","iata":"YVO","icao":"CYVO","lat":"48.053333","longitude":"-77.782778","alt":"1107","timezone":"-5","dst":"A","continent":"North America"},{"name":"Vancouver Coal Harbour","city":"Vancouver","country":"Canada","country_code":"CA","iata":"CXH","icao":"CAQ3","lat":"49.289722","longitude":"-123.115833","alt":"0","timezone":"-8","dst":"A","continent":"North America"},{"name":"Vancouver Harbour Water Airport","city":"","country":"Canada","country_code":"CA","iata":"YHC","icao":"CYHC","lat":"49.2944","longitude":"-123.111","alt":"0","timezone":"-8","dst":"A","continent":"North America"},{"name":"Vancouver Intl","city":"Vancouver","country":"Canada","country_code":"CA","iata":"YVR","icao":"CYVR","lat":"49.193889","longitude":"-123.184444","alt":"14","timezone":"-8","dst":"A","continent":"North America"},{"name":"Vermilion","city":"Vermillion","country":"Canada","country_code":"CA","iata":"YVG","icao":"CYVG","lat":"53.355833","longitude":"-110.82389","alt":"2025","timezone":"-7","dst":"A","continent":"North America"},{"name":"Victoria Inner Harbour Airport","city":"Victoria","country":"Canada","country_code":"CA","iata":"YWH","icao":"CYWH","lat":"48.422778","longitude":"-123.3875","alt":"0","timezone":"-8","dst":"A","continent":"North America"},{"name":"Victoria Intl","city":"Victoria","country":"Canada","country_code":"CA","iata":"YYJ","icao":"CYYJ","lat":"48.646944","longitude":"-123.425833","alt":"63","timezone":"-8","dst":"A","continent":"North America"},{"name":"Wabush","city":"Wabush","country":"Canada","country_code":"CA","iata":"YWK","icao":"CYWK","lat":"52.921944","longitude":"-66.864444","alt":"1808","timezone":"-4","dst":"A","continent":"North America"},{"name":"Wapekeka Airport","city":"Angling Lake","country":"Canada","country_code":"CA","iata":"YAX","icao":"CKB6","lat":"53.8492","longitude":"-89.5794","alt":"712","timezone":"-5","dst":"A","continent":"North America"},{"name":"Waskaganish Airport","city":"Waskaganish","country":"Canada","country_code":"CA","iata":"YKQ","icao":"CYKQ","lat":"51.4733","longitude":"-78.7583","alt":"80","timezone":"-5","dst":"A","continent":"North America"},{"name":"Waterloo","city":"Waterloo","country":"Canada","country_code":"CA","iata":"YKF","icao":"CYKF","lat":"43.460833","longitude":"-80.378611","alt":"1054","timezone":"-5","dst":"A","continent":"North America"},{"name":"Watson Lake","city":"Watson Lake","country":"Canada","country_code":"CA","iata":"YQH","icao":"CYQH","lat":"60.116389","longitude":"-128.8225","alt":"2255","timezone":"-8","dst":"A","continent":"North America"},{"name":"Wawa","city":"Wawa","country":"Canada","country_code":"CA","iata":"YXZ","icao":"CYXZ","lat":"47.966944","longitude":"-84.786389","alt":"944","timezone":"-5","dst":"A","continent":"North America"},{"name":"Webequie Airport","city":"Webequie","country":"Canada","country_code":"CA","iata":"YWP","icao":"CYWP","lat":"52.9597","longitude":"-87.3689","alt":"685","timezone":"-5","dst":"A","continent":"North America"},{"name":"Wemindji Airport","city":"Wemindji","country":"Canada","country_code":"CA","iata":"YNC","icao":"CYNC","lat":"53.0106","longitude":"-78.8311","alt":"66","timezone":"-5","dst":"A","continent":"North America"},{"name":"Whale Cove Airport","city":"Whale Cove","country":"Canada","country_code":"CA","iata":"YXN","icao":"CYXN","lat":"62.24","longitude":"-92.5981","alt":"40","timezone":"-6","dst":"A","continent":"North America"},{"name":"What? Airport","city":"What?","country":"Canada","country_code":"CA","iata":"YLE","icao":"CEM3","lat":"63.1317","longitude":"-117.246","alt":"882","timezone":"-7","dst":"A","continent":"North America"},{"name":"Whistler\/Green Lake Water Aerodrome","city":"Whistler","country":"Canada","country_code":"CA","iata":"YWS","icao":"CAE5","lat":"50.1436","longitude":"-122.949","alt":"2100","timezone":"-8","dst":"A","continent":"North America"},{"name":"Whitecourt","city":"Whitecourt","country":"Canada","country_code":"CA","iata":"YZU","icao":"CYZU","lat":"54.14389","longitude":"-115.786667","alt":"2567","timezone":"-7","dst":"A","continent":"North America"},{"name":"Whitehorse Intl","city":"Whitehorse","country":"Canada","country_code":"CA","iata":"YXY","icao":"CYXY","lat":"60.709553","longitude":"-135.067269","alt":"2317","timezone":"-8","dst":"A","continent":"North America"},{"name":"Wiarton","city":"Wiarton","country":"Canada","country_code":"CA","iata":"YVV","icao":"CYVV","lat":"44.745834","longitude":"-81.107222","alt":"729","timezone":"-5","dst":"A","continent":"North America"},{"name":"Williams Harbour Airport","city":"Williams Harbour","country":"Canada","country_code":"CA","iata":"YWM","icao":"CCA6","lat":"52.5669","longitude":"-55.7847","alt":"70","timezone":"-4","dst":"A","continent":"North America"},{"name":"Williams Lake","city":"Williams Lake","country":"Canada","country_code":"CA","iata":"YWL","icao":"CYWL","lat":"52.183056","longitude":"-122.054167","alt":"3085","timezone":"-8","dst":"A","continent":"North America"},{"name":"Windsor","city":"Windsor","country":"Canada","country_code":"CA","iata":"YQG","icao":"CYQG","lat":"42.275556","longitude":"-82.955556","alt":"622","timezone":"-5","dst":"A","continent":"North America"},{"name":"Winnipeg Intl","city":"Winnipeg","country":"Canada","country_code":"CA","iata":"YWG","icao":"CYWG","lat":"49.910036","longitude":"-97.239886","alt":"783","timezone":"-6","dst":"A","continent":"North America"},{"name":"Winnipeg St Andrews","city":"Winnipeg","country":"Canada","country_code":"CA","iata":"YAV","icao":"CYAV","lat":"50.056389","longitude":"-97.0325","alt":"760","timezone":"-6","dst":"A","continent":"North America"},{"name":"Wollaston Lake Airport","city":"Wollaston Lake","country":"Canada","country_code":"CA","iata":"ZWL","icao":"CZWL","lat":"58.1069","longitude":"-103.172","alt":"1360","timezone":"-6","dst":"N","continent":"North America"},{"name":"Wrigley","city":"Wrigley","country":"Canada","country_code":"CA","iata":"YWY","icao":"CYWY","lat":"63.209444","longitude":"-123.436667","alt":"489","timezone":"-7","dst":"A","continent":"North America"},{"name":"Wunnumin Lake Airport","city":"Wunnumin Lake","country":"Canada","country_code":"CA","iata":"WNN","icao":"CKL3","lat":"52.8939","longitude":"-89.2892","alt":"819","timezone":"-5","dst":"A","continent":"North America"},{"name":"Yarmouth Airport","city":"Yarmouth","country":"Canada","country_code":"CA","iata":"YQI","icao":"CYQI","lat":"43.8269","longitude":"-66.0881","alt":"141","timezone":"-5","dst":"A","continent":"North America"},{"name":"Yellowknife","city":"Yellowknife","country":"Canada","country_code":"CA","iata":"YZF","icao":"CYZF","lat":"62.462778","longitude":"-114.440278","alt":"675","timezone":"-7","dst":"A","continent":"North America"},{"name":"York Landing Airport","city":"York Landing","country":"Canada","country_code":"CA","iata":"ZAC","icao":"CZAC","lat":"56.0894","longitude":"-96.0892","alt":"621","timezone":"-6","dst":"A","continent":"North America"},{"name":"Yorkton Muni","city":"Yorkton","country":"Canada","country_code":"CA","iata":"YQV","icao":"CYQV","lat":"51.264721","longitude":"-102.461667","alt":"1635","timezone":"-6","dst":"N","continent":"North America"}]
