[
  {
    "name": "Allgau",
    "city": "Memmingen",
    "country": "Germany",
    "country_code": "DE",
    "iata": "FMM",
    "icao": "EDJA",
    "lat": "47.988758",
    "longitude": "10.2395",
    "alt": "2077",
    "timezone": "1",
    "dst": "E",
    "continent": "Europe"
  },
  {
    "name": "Altenburg Nobitz",
    "city": "Altenburg",
    "country": "Germany",
    "country_code": "DE",
    "iata": "AOC",
    "icao": "EDAC",
    "lat": "50.981817",
    "longitude": "12.506361",
    "alt": "640",
    "timezone": "1",
    "dst": "E",
    "continent": "Europe"
  },
  {
    "name": "Arnsberg Menden",
    "city": "Arnsberg",
    "country": "Germany",
    "country_code": "DE",
    "iata": "ZCA",
    "icao": "EDLA",
    "lat": "51.483333",
    "longitude": "7.899333",
    "alt": "794",
    "timezone": "1",
    "dst": "E",
    "continent": "Europe"
  },
  {
    "name": "Augsburg",
    "city": "Augsburg",
    "country": "Germany",
    "country_code": "DE",
    "iata": "AGB",
    "icao": "EDMA",
    "lat": "48.425158",
    "longitude": "10.931764",
    "alt": "1515",
    "timezone": "1",
    "dst": "E",
    "continent": "Europe"
  },
  {
    "name": "Augsburg HBF",
    "city": "Augsburg",
    "country": "Germany",
    "country_code": "DE",
    "iata": "AUB",
    "icao": "AUGS",
    "lat": "48.3655",
    "longitude": "10.886",
    "alt": "1200",
    "timezone": "2",
    "dst": "E",
    "continent": "Europe"
  },
  {
    "name": "Augsburg Railway",
    "city": "Augsburg",
    "country": "Germany",
    "country_code": "DE",
    "iata": "ZAU",
    "icao": "N",
    "lat": "48.3655",
    "longitude": "10.8863",
    "alt": "500",
    "timezone": "0",
    "dst": "U",
    "continent": "Europe"
  },
  {
    "name": "Baden Airpark",
    "city": "Karlsruhe\/Baden-Baden",
    "country": "Germany",
    "country_code": "DE",
    "iata": "FKB",
    "icao": "EDSB",
    "lat": "48.7793",
    "longitude": "8.08048",
    "alt": "407",
    "timezone": "1",
    "dst": "E",
    "continent": "Europe"
  },
  {
    "name": "Bamberg BF",
    "city": "Bamberg",
    "country": "Germany",
    "country_code": "DE",
    "iata": "BAM",
    "icao": "BAMB",
    "lat": "49.911",
    "longitude": "10.9",
    "alt": "800",
    "timezone": "1",
    "dst": "E",
    "continent": "Europe"
  },
  {
    "name": "Barth",
    "city": "Barth",
    "country": "Germany",
    "country_code": "DE",
    "iata": "BBH",
    "icao": "EDBH",
    "lat": "54.33754",
    "longitude": "12.699705",
    "alt": "23",
    "timezone": "1",
    "dst": "E",
    "continent": "Europe"
  },
  {
    "name": "Bautzen",
    "city": "Bautzen",
    "country": "Germany",
    "country_code": "DE",
    "iata": "BBJ",
    "icao": "EDAB",
    "lat": "51.193531",
    "longitude": "14.519747",
    "alt": "568",
    "timezone": "1",
    "dst": "E",
    "continent": "Europe"
  },
  {
    "name": "Bayreuth",
    "city": "Bayreuth",
    "country": "Germany",
    "country_code": "DE",
    "iata": "BYU",
    "icao": "EDQD",
    "lat": "49.984428",
    "longitude": "11.638569",
    "alt": "1601",
    "timezone": "1",
    "dst": "E",
    "continent": "Europe"
  },
  {
    "name": "Berlin - Metropolencode",
    "city": "Berlin",
    "country": "Germany",
    "country_code": "DE",
    "iata": "BER",
    "icao": "N",
    "lat": "52.31",
    "longitude": "13.24",
    "alt": "34",
    "timezone": "1",
    "dst": "E",
    "continent": "Europe"
  },
  {
    "name": "Berlin Gatow",
    "city": "Berlin",
    "country": "Germany",
    "country_code": "DE",
    "iata": "GWW",
    "icao": "N",
    "lat": "52.31",
    "longitude": "13.24",
    "alt": "160",
    "timezone": "1",
    "dst": "E",
    "continent": "Europe"
  },
  {
    "name": "Berlin Hauptbahnhof",
    "city": "Berlin",
    "country": "Germany",
    "country_code": "DE",
    "iata": "QPP",
    "icao": "N",
    "lat": "52.52493",
    "longitude": "13.36963",
    "alt": "110",
    "timezone": "2",
    "dst": "E",
    "continent": "Europe"
  },
  {
    "name": "Biessenhofen BF",
    "city": "Biessenhofen",
    "country": "Germany",
    "country_code": "DE",
    "iata": "BIE",
    "icao": "BIES",
    "lat": "47.851",
    "longitude": "10.634",
    "alt": "1200",
    "timezone": "2",
    "dst": "E",
    "continent": "Europe"
  },
  {
    "name": "Bochum HBF",
    "city": "Bochum",
    "country": "Germany",
    "country_code": "DE",
    "iata": "BOX",
    "icao": "BOCH",
    "lat": "51.478506",
    "longitude": "7.2222",
    "alt": "1000",
    "timezone": "3",
    "dst": "E",
    "continent": "Europe"
  },
  {
    "name": "Bochum Railway",
    "city": "Bochum",
    "country": "Germany",
    "country_code": "DE",
    "iata": "EBO",
    "icao": "N",
    "lat": "51.478506",
    "longitude": "7.222781",
    "alt": "45",
    "timezone": "1",
    "dst": "U",
    "continent": "Europe"
  },
  {
    "name": "Borkum",
    "city": "Borkum",
    "country": "Germany",
    "country_code": "DE",
    "iata": "BMK",
    "icao": "EDWR",
    "lat": "53.5955",
    "longitude": "6.709167",
    "alt": "3",
    "timezone": "1",
    "dst": "E",
    "continent": "Europe"
  },
  {
    "name": "Braunschweig Wolfsburg",
    "city": "Braunschweig",
    "country": "Germany",
    "country_code": "DE",
    "iata": "BWE",
    "icao": "EDVE",
    "lat": "52.319167",
    "longitude": "10.556111",
    "alt": "295",
    "timezone": "1",
    "dst": "E",
    "continent": "Europe"
  },
  {
    "name": "Bremerhaven",
    "city": "Bremerhaven",
    "country": "Germany",
    "country_code": "DE",
    "iata": "BRV",
    "icao": "EDWB",
    "lat": "53.507081",
    "longitude": "8.572878",
    "alt": "11",
    "timezone": "1",
    "dst": "E",
    "continent": "Europe"
  },
  {
    "name": "Buchloe BF",
    "city": "Buchloe",
    "country": "Germany",
    "country_code": "DE",
    "iata": "BUH",
    "icao": "BUCH",
    "lat": "48.0411",
    "longitude": "10.715",
    "alt": "1200",
    "timezone": "2",
    "dst": "E",
    "continent": "Europe"
  },
  {
    "name": "Celle",
    "city": "Celle",
    "country": "Germany",
    "country_code": "DE",
    "iata": "ZCN",
    "icao": "ETHC",
    "lat": "52.5912",
    "longitude": "10.022133",
    "alt": "129",
    "timezone": "1",
    "dst": "E",
    "continent": "Europe"
  },
  {
    "name": "Cologne Railway",
    "city": "Cologne",
    "country": "Germany",
    "country_code": "DE",
    "iata": "QKL",
    "icao": "N",
    "lat": "50.9",
    "longitude": "7.183",
    "alt": "100",
    "timezone": "1",
    "dst": "E",
    "continent": "Europe"
  },
  {
    "name": "Cuxhaven Airport",
    "city": "Cuxhaven",
    "country": "Germany",
    "country_code": "DE",
    "iata": "NDZ",
    "icao": "KNDZ",
    "lat": "53.768612",
    "longitude": "8.644722",
    "alt": "75",
    "timezone": "1",
    "dst": "E",
    "continent": "Europe"
  },
  {
    "name": "Donaueschingen Villingen",
    "city": "Donaueschingen",
    "country": "Germany",
    "country_code": "DE",
    "iata": "ZQL",
    "icao": "EDTD",
    "lat": "47.973331",
    "longitude": "8.522223",
    "alt": "2231",
    "timezone": "1",
    "dst": "E",
    "continent": "Europe"
  },
  {
    "name": "Dortmund",
    "city": "Dortmund",
    "country": "Germany",
    "country_code": "DE",
    "iata": "DTM",
    "icao": "EDLW",
    "lat": "51.518314",
    "longitude": "7.612242",
    "alt": "425",
    "timezone": "1",
    "dst": "E",
    "continent": "Europe"
  },
  {
    "name": "Dresden",
    "city": "Dresden",
    "country": "Germany",
    "country_code": "DE",
    "iata": "DRS",
    "icao": "EDDC",
    "lat": "51.132767",
    "longitude": "13.767161",
    "alt": "755",
    "timezone": "1",
    "dst": "E",
    "continent": "Europe"
  },
  {
    "name": "Dusseldorf",
    "city": "Duesseldorf",
    "country": "Germany",
    "country_code": "DE",
    "iata": "DUS",
    "icao": "EDDL",
    "lat": "51.289453",
    "longitude": "6.766775",
    "alt": "147",
    "timezone": "1",
    "dst": "E",
    "continent": "Europe"
  },
  {
    "name": "Dusseldorf Hauptbahnhof",
    "city": "Dusseldorf",
    "country": "Germany",
    "country_code": "DE",
    "iata": "QDU",
    "icao": "N",
    "lat": "51.220278",
    "longitude": "6.792778",
    "alt": "125",
    "timezone": "1",
    "dst": "E",
    "continent": "Europe"
  },
  {
    "name": "Ebenhofen BF",
    "city": "Ebenhofen",
    "country": "Germany",
    "country_code": "DE",
    "iata": "EBE",
    "icao": "EBEN",
    "lat": "47.824",
    "longitude": "10.623",
    "alt": "1200",
    "timezone": "2",
    "dst": "E",
    "continent": "Europe"
  },
  {
    "name": "Egelsbach",
    "city": "Egelsbach",
    "country": "Germany",
    "country_code": "DE",
    "iata": "QEF",
    "icao": "N",
    "lat": "49.9608",
    "longitude": "8.64361",
    "alt": "384",
    "timezone": "1",
    "dst": "E",
    "continent": "Europe"
  },
  {
    "name": "Emden",
    "city": "Emden",
    "country": "Germany",
    "country_code": "DE",
    "iata": "EME",
    "icao": "EDWE",
    "lat": "53.391186",
    "longitude": "7.227408",
    "alt": "2",
    "timezone": "1",
    "dst": "E",
    "continent": "Europe"
  },
  {
    "name": "Erfurt",
    "city": "Erfurt",
    "country": "Germany",
    "country_code": "DE",
    "iata": "ERF",
    "icao": "EDDE",
    "lat": "50.979811",
    "longitude": "10.958106",
    "alt": "1036",
    "timezone": "1",
    "dst": "E",
    "continent": "Europe"
  },
  {
    "name": "Essen HBF",
    "city": "Essen",
    "country": "Germany",
    "country_code": "DE",
    "iata": "ESX",
    "icao": "ESSE",
    "lat": "51.451389",
    "longitude": "7.0138",
    "alt": "1000",
    "timezone": "2",
    "dst": "E",
    "continent": "Europe"
  },
  {
    "name": "Essen Mulheim",
    "city": "Essen",
    "country": "Germany",
    "country_code": "DE",
    "iata": "ESS",
    "icao": "EDLE",
    "lat": "51.402333",
    "longitude": "6.937333",
    "alt": "424",
    "timezone": "1",
    "dst": "E",
    "continent": "Europe"
  },
  {
    "name": "Essen Railway",
    "city": "Essen",
    "country": "Germany",
    "country_code": "DE",
    "iata": "ZES",
    "icao": "N",
    "lat": "51.451389",
    "longitude": "7.013889",
    "alt": "200",
    "timezone": "0",
    "dst": "U",
    "continent": "Europe"
  },
  {
    "name": "Flensburg Schaferhaus",
    "city": "Flensburg",
    "country": "Germany",
    "country_code": "DE",
    "iata": "FLF",
    "icao": "EDXF",
    "lat": "54.771772",
    "longitude": "9.378214",
    "alt": "130",
    "timezone": "1",
    "dst": "E",
    "continent": "Europe"
  },
  {
    "name": "Fliegerhost ",
    "city": "Kaufbeuren",
    "country": "Germany",
    "country_code": "DE",
    "iata": "KFB",
    "icao": "N",
    "lat": "47.874",
    "longitude": "10.6294",
    "alt": "680",
    "timezone": "1",
    "dst": "U",
    "continent": "Europe"
  },
  {
    "name": "Flugplatz Merzbrueck",
    "city": "Aachen",
    "country": "Germany",
    "country_code": "DE",
    "iata": "AAH",
    "icao": "EDKA",
    "lat": "50.823194",
    "longitude": "6.186389",
    "alt": "570",
    "timezone": "1",
    "dst": "E",
    "continent": "Europe"
  },
  {
    "name": "Frankfurt Hahn",
    "city": "Hahn",
    "country": "Germany",
    "country_code": "DE",
    "iata": "HHN",
    "icao": "EDFH",
    "lat": "49.948672",
    "longitude": "7.263892",
    "alt": "1649",
    "timezone": "1",
    "dst": "E",
    "continent": "Europe"
  },
  {
    "name": "Frankfurt Main",
    "city": "Frankfurt",
    "country": "Germany",
    "country_code": "DE",
    "iata": "FRA",
    "icao": "EDDF",
    "lat": "50.026421",
    "longitude": "8.543125",
    "alt": "364",
    "timezone": "1",
    "dst": "E",
    "continent": "Europe"
  },
  {
    "name": "Frankfurt-Main Hauptbahnhof",
    "city": "Frankfurt",
    "country": "Germany",
    "country_code": "DE",
    "iata": "ZRB",
    "icao": "N",
    "lat": "50.107025799",
    "longitude": "8.6627605052",
    "alt": "372",
    "timezone": "1",
    "dst": "E",
    "continent": "Europe"
  },
  {
    "name": "Franz Josef Strauss",
    "city": "Munich",
    "country": "Germany",
    "country_code": "DE",
    "iata": "MUC",
    "icao": "EDDM",
    "lat": "48.353783",
    "longitude": "11.786086",
    "alt": "1487",
    "timezone": "1",
    "dst": "E",
    "continent": "Europe"
  },
  {
    "name": "Friedrichshafen",
    "city": "Friedrichshafen",
    "country": "Germany",
    "country_code": "DE",
    "iata": "FDH",
    "icao": "EDNY",
    "lat": "47.671317",
    "longitude": "9.511486",
    "alt": "1367",
    "timezone": "1",
    "dst": "E",
    "continent": "Europe"
  },
  {
    "name": "Furstenfeldbruck",
    "city": "Fuerstenfeldbruck",
    "country": "Germany",
    "country_code": "DE",
    "iata": "FEL",
    "icao": "ETSF",
    "lat": "48.205667",
    "longitude": "11.267",
    "alt": "1703",
    "timezone": "1",
    "dst": "E",
    "continent": "Europe"
  },
  {
    "name": "Fussen",
    "city": "Fussen",
    "country": "Germany",
    "country_code": "DE",
    "iata": "FUS",
    "icao": "FUSS",
    "lat": "47.585",
    "longitude": "10.6866",
    "alt": "800",
    "timezone": "1",
    "dst": "U",
    "continent": "Europe"
  },
  {
    "name": "Fussen BF",
    "city": "Fussen",
    "country": "Germany",
    "country_code": "DE",
    "iata": "FUX",
    "icao": "FUSN",
    "lat": "47.585",
    "longitude": "10.6866",
    "alt": "1200",
    "timezone": "2",
    "dst": "E",
    "continent": "Europe"
  },
  {
    "name": "Geilenkirchen",
    "city": "Geilenkirchen",
    "country": "Germany",
    "country_code": "DE",
    "iata": "GKE",
    "icao": "ETNG",
    "lat": "50.960817",
    "longitude": "6.042422",
    "alt": "296",
    "timezone": "1",
    "dst": "E",
    "continent": "Europe"
  },
  {
    "name": "Giebelstadt Aaf",
    "city": "Giebelstadt",
    "country": "Germany",
    "country_code": "DE",
    "iata": "GHF",
    "icao": "ETEU",
    "lat": "49.648131",
    "longitude": "9.966494",
    "alt": "980",
    "timezone": "1",
    "dst": "E",
    "continent": "Europe"
  },
  {
    "name": "Guettin MecklenburgVorpommern Germany",
    "city": "Ruegen",
    "country": "Germany",
    "country_code": "DE",
    "iata": "GTI",
    "icao": "EDCG",
    "lat": "54.383333",
    "longitude": "13.325278",
    "alt": "69",
    "timezone": "1",
    "dst": "U",
    "continent": "Europe"
  },
  {
    "name": "Gutersloh",
    "city": "Guetersloh",
    "country": "Germany",
    "country_code": "DE",
    "iata": "GUT",
    "icao": "ETUO",
    "lat": "51.922833",
    "longitude": "8.306333",
    "alt": "236",
    "timezone": "1",
    "dst": "E",
    "continent": "Europe"
  },
  {
    "name": "Hamburg",
    "city": "Hamburg",
    "country": "Germany",
    "country_code": "DE",
    "iata": "HAM",
    "icao": "EDDH",
    "lat": "53.630389",
    "longitude": "9.988228",
    "alt": "53",
    "timezone": "1",
    "dst": "E",
    "continent": "Europe"
  },
  {
    "name": "Hamburg Finkenwerder",
    "city": "Hamburg",
    "country": "Germany",
    "country_code": "DE",
    "iata": "XFW",
    "icao": "EDHI",
    "lat": "53.535886",
    "longitude": "9.837025",
    "alt": "22",
    "timezone": "1",
    "dst": "E",
    "continent": "Europe"
  },
  {
    "name": "Hanau Aaf",
    "city": "Hanau",
    "country": "Germany",
    "country_code": "DE",
    "iata": "ZNF",
    "icao": "ETID",
    "lat": "50.169189",
    "longitude": "8.961586",
    "alt": "368",
    "timezone": "1",
    "dst": "E",
    "continent": "Europe"
  },
  {
    "name": "Hannover",
    "city": "Hannover",
    "country": "Germany",
    "country_code": "DE",
    "iata": "HAJ",
    "icao": "EDDV",
    "lat": "52.461056",
    "longitude": "9.685078",
    "alt": "183",
    "timezone": "1",
    "dst": "E",
    "continent": "Europe"
  },
  {
    "name": "Heide-B?sum Airport",
    "city": "B?sum",
    "country": "Germany",
    "country_code": "DE",
    "iata": "HEI",
    "icao": "EDXB",
    "lat": "54.1533",
    "longitude": "8.90167",
    "alt": "7",
    "timezone": "1",
    "dst": "E",
    "continent": "Europe"
  },
  {
    "name": "Heidelberg",
    "city": "Heidelberg",
    "country": "Germany",
    "country_code": "DE",
    "iata": "HDB",
    "icao": "EDIU",
    "lat": "49.393333",
    "longitude": "8.6525",
    "alt": "0",
    "timezone": "1",
    "dst": "E",
    "continent": "Europe"
  },
  {
    "name": "Helgoland-D?ne Airport",
    "city": "Helgoland",
    "country": "Germany",
    "country_code": "DE",
    "iata": "HGL",
    "icao": "EDXH",
    "lat": "54.1853",
    "longitude": "7.91583",
    "alt": "7",
    "timezone": "1",
    "dst": "E",
    "continent": "Europe"
  },
  {
    "name": "Heringsdorf Airport",
    "city": "Heringsdorf",
    "country": "Germany",
    "country_code": "DE",
    "iata": "HDF",
    "icao": "EDAH",
    "lat": "53.878706",
    "longitude": "14.152347",
    "alt": "93",
    "timezone": "1",
    "dst": "E",
    "continent": "Europe"
  },
  {
    "name": "Hof Plauen",
    "city": "Hof",
    "country": "Germany",
    "country_code": "DE",
    "iata": "HOQ",
    "icao": "EDQM",
    "lat": "50.288836",
    "longitude": "11.854919",
    "alt": "1960",
    "timezone": "1",
    "dst": "E",
    "continent": "Europe"
  },
  {
    "name": "Ingolstadt BF",
    "city": "Ingolstadt",
    "country": "Germany",
    "country_code": "DE",
    "iata": "IGS",
    "icao": "INGS",
    "lat": "48.7777",
    "longitude": "11.422",
    "alt": "888",
    "timezone": "1",
    "dst": "E",
    "continent": "Europe"
  },
  {
    "name": "Kassel Calden",
    "city": "Kassel",
    "country": "Germany",
    "country_code": "DE",
    "iata": "KSF",
    "icao": "EDVK",
    "lat": "51.408394",
    "longitude": "9.377631",
    "alt": "908",
    "timezone": "1",
    "dst": "E",
    "continent": "Europe"
  },
  {
    "name": "Kaufbeuren BF",
    "city": "Kaufbeuren",
    "country": "Germany",
    "country_code": "DE",
    "iata": "KFX",
    "icao": "KAUF",
    "lat": "47.885",
    "longitude": "10.6294",
    "alt": "1200",
    "timezone": "2",
    "dst": "E",
    "continent": "Europe"
  },
  {
    "name": "Kempten HBF",
    "city": "Kempten",
    "country": "Germany",
    "country_code": "DE",
    "iata": "KEX",
    "icao": "KEMP",
    "lat": "47.724",
    "longitude": "10.311",
    "alt": "1200",
    "timezone": "2",
    "dst": "E",
    "continent": "Europe"
  },
  {
    "name": "Kiel Holtenau",
    "city": "Kiel",
    "country": "Germany",
    "country_code": "DE",
    "iata": "KEL",
    "icao": "EDHK",
    "lat": "54.3795",
    "longitude": "10.145167",
    "alt": "101",
    "timezone": "1",
    "dst": "E",
    "continent": "Europe"
  },
  {
    "name": "Koblenz Winningen",
    "city": "Koblenz",
    "country": "Germany",
    "country_code": "DE",
    "iata": "ZNV",
    "icao": "EDRK",
    "lat": "50.3255",
    "longitude": "7.528667",
    "alt": "640",
    "timezone": "1",
    "dst": "E",
    "continent": "Europe"
  },
  {
    "name": "Koln Bonn",
    "city": "Cologne",
    "country": "Germany",
    "country_code": "DE",
    "iata": "CGN",
    "icao": "EDDK",
    "lat": "50.865917",
    "longitude": "7.142744",
    "alt": "302",
    "timezone": "1",
    "dst": "E",
    "continent": "Europe"
  },
  {
    "name": "Koln HBF",
    "city": "Koln",
    "country": "Germany",
    "country_code": "DE",
    "iata": "KOX",
    "icao": "KOLN",
    "lat": "50.954",
    "longitude": "7.183",
    "alt": "1000",
    "timezone": "2",
    "dst": "E",
    "continent": "Europe"
  },
  {
    "name": "Laage",
    "city": "Laage",
    "country": "Germany",
    "country_code": "DE",
    "iata": "RLG",
    "icao": "ETNL",
    "lat": "53.918167",
    "longitude": "12.278333",
    "alt": "138",
    "timezone": "1",
    "dst": "E",
    "continent": "Europe"
  },
  {
    "name": "Lahr Airport",
    "city": "Lahr",
    "country": "Germany",
    "country_code": "DE",
    "iata": "LHA",
    "icao": "EDTL",
    "lat": "48.3693",
    "longitude": "7.82772",
    "alt": "511",
    "timezone": "1",
    "dst": "E",
    "continent": "Europe"
  },
  {
    "name": "Langeoog Airport",
    "city": "Langeoog",
    "country": "Germany",
    "country_code": "DE",
    "iata": "LGO",
    "icao": "EDWL",
    "lat": "53.7425",
    "longitude": "7.49778",
    "alt": "7",
    "timezone": "-1",
    "dst": "E",
    "continent": "Europe"
  },
  {
    "name": "Leipzig Halle",
    "city": "Leipzig",
    "country": "Germany",
    "country_code": "DE",
    "iata": "LEJ",
    "icao": "EDDP",
    "lat": "51.432447",
    "longitude": "12.241633",
    "alt": "465",
    "timezone": "1",
    "dst": "E",
    "continent": "Europe"
  },
  {
    "name": "Leuterschach BF",
    "city": "Leuterschach",
    "country": "Germany",
    "country_code": "DE",
    "iata": "LES",
    "icao": "LEUT",
    "lat": "47.75",
    "longitude": "10.601",
    "alt": "1200",
    "timezone": "2",
    "dst": "E",
    "continent": "Europe"
  },
  {
    "name": "Lindau HBF",
    "city": "Lindau",
    "country": "Germany",
    "country_code": "DE",
    "iata": "LND",
    "icao": "LIND",
    "lat": "47.5489",
    "longitude": "9.688",
    "alt": "1000",
    "timezone": "2",
    "dst": "E",
    "continent": "Europe"
  },
  {
    "name": "Lubeck Blankensee",
    "city": "Luebeck",
    "country": "Germany",
    "country_code": "DE",
    "iata": "LBC",
    "icao": "EDHL",
    "lat": "53.805367",
    "longitude": "10.719222",
    "alt": "53",
    "timezone": "1",
    "dst": "E",
    "continent": "Europe"
  },
  {
    "name": "Magdeburg-Cochstedt",
    "city": "Cochstedt",
    "country": "Germany",
    "country_code": "DE",
    "iata": "CSO",
    "icao": "EDBC",
    "lat": "51.855833",
    "longitude": "11.418333",
    "alt": "596",
    "timezone": "1",
    "dst": "E",
    "continent": "Europe"
  },
  {
    "name": "Mainz",
    "city": "Mainz",
    "country": "Germany",
    "country_code": "DE",
    "iata": "QMZ",
    "icao": "N",
    "lat": "50.00829",
    "longitude": "8.27356",
    "alt": "360",
    "timezone": "1",
    "dst": "E",
    "continent": "Europe"
  },
  {
    "name": "Mainz Finthen",
    "city": "Mainz",
    "country": "Germany",
    "country_code": "DE",
    "iata": "QFZ",
    "icao": "N",
    "lat": "0",
    "longitude": "0",
    "alt": "300",
    "timezone": "1",
    "dst": "E",
    "continent": "Europe"
  },
  {
    "name": "Mannheim City",
    "city": "Mannheim",
    "country": "Germany",
    "country_code": "DE",
    "iata": "MHG",
    "icao": "EDFM",
    "lat": "49.472706",
    "longitude": "8.514264",
    "alt": "309",
    "timezone": "1",
    "dst": "E",
    "continent": "Europe"
  },
  {
    "name": "Mannheim Railway",
    "city": "Mannheim",
    "country": "Germany",
    "country_code": "DE",
    "iata": "ZMA",
    "icao": "N",
    "lat": "49.479633",
    "longitude": "8.469858",
    "alt": "200",
    "timezone": "0",
    "dst": "U",
    "continent": "Europe"
  },
  {
    "name": "Marktoberdorf BF",
    "city": "Marktoberdorf",
    "country": "Germany",
    "country_code": "DE",
    "iata": "OAL",
    "icao": "MARK",
    "lat": "47.78",
    "longitude": "10.627",
    "alt": "1200",
    "timezone": "2",
    "dst": "E",
    "continent": "Europe"
  },
  {
    "name": "Marktoberdorf Schule",
    "city": "Marktoberdorf",
    "country": "Germany",
    "country_code": "DE",
    "iata": "MOS",
    "icao": "MARO",
    "lat": "47.777",
    "longitude": "10.623",
    "alt": "1200",
    "timezone": "2",
    "dst": "E",
    "continent": "Europe"
  },
  {
    "name": "Monchengladbach",
    "city": "Moenchengladbach",
    "country": "Germany",
    "country_code": "DE",
    "iata": "MGL",
    "icao": "EDLN",
    "lat": "51.230356",
    "longitude": "6.504494",
    "alt": "125",
    "timezone": "1",
    "dst": "E",
    "continent": "Europe"
  },
  {
    "name": "Munich HBF",
    "city": "Munich",
    "country": "Germany",
    "country_code": "DE",
    "iata": "MUQ",
    "icao": "MUNI",
    "lat": "48.1408",
    "longitude": "11.555",
    "alt": "1200",
    "timezone": "2",
    "dst": "E",
    "continent": "Europe"
  },
  {
    "name": "Munich Railway",
    "city": "Munich",
    "country": "Germany",
    "country_code": "DE",
    "iata": "ZMU",
    "icao": "N",
    "lat": "48.1408",
    "longitude": "11.555",
    "alt": "500",
    "timezone": "1",
    "dst": "U",
    "continent": "Europe"
  },
  {
    "name": "Munster Osnabruck",
    "city": "Muenster\/osnabrueck",
    "country": "Germany",
    "country_code": "DE",
    "iata": "FMO",
    "icao": "EDDG",
    "lat": "52.134642",
    "longitude": "7.684831",
    "alt": "160",
    "timezone": "1",
    "dst": "E",
    "continent": "Europe"
  },
  {
    "name": "Neuenland",
    "city": "Bremen",
    "country": "Germany",
    "country_code": "DE",
    "iata": "BRE",
    "icao": "EDDW",
    "lat": "53.0475",
    "longitude": "8.786667",
    "alt": "14",
    "timezone": "1",
    "dst": "E",
    "continent": "Europe"
  },
  {
    "name": "Niederrhein",
    "city": "Weeze",
    "country": "Germany",
    "country_code": "DE",
    "iata": "NRN",
    "icao": "EDLV",
    "lat": "51.602222",
    "longitude": "6.141944",
    "alt": "106",
    "timezone": "1",
    "dst": "E",
    "continent": "Europe"
  },
  {
    "name": "Norderney",
    "city": "Norderney",
    "country": "Germany",
    "country_code": "DE",
    "iata": "NRD",
    "icao": "EDWY",
    "lat": "53.706822",
    "longitude": "7.230247",
    "alt": "6",
    "timezone": "1",
    "dst": "E",
    "continent": "Europe"
  },
  {
    "name": "Nuernberg Railway",
    "city": "Nuernberg",
    "country": "Germany",
    "country_code": "DE",
    "iata": "ZAQ",
    "icao": "N",
    "lat": "49.446389",
    "longitude": "11.081944",
    "alt": "312",
    "timezone": "1",
    "dst": "U",
    "continent": "Europe"
  },
  {
    "name": "Nurnberg",
    "city": "Nuernberg",
    "country": "Germany",
    "country_code": "DE",
    "iata": "NUE",
    "icao": "EDDN",
    "lat": "49.4987",
    "longitude": "11.066897",
    "alt": "1046",
    "timezone": "1",
    "dst": "E",
    "continent": "Europe"
  },
  {
    "name": "Nurnberg HBF",
    "city": "Nurnberg",
    "country": "Germany",
    "country_code": "DE",
    "iata": "NUR",
    "icao": "NURN",
    "lat": "49.446",
    "longitude": "11.081944",
    "alt": "1200",
    "timezone": "2",
    "dst": "E",
    "continent": "Europe"
  },
  {
    "name": "Oberpfaffenhofen",
    "city": "Oberpfaffenhofen",
    "country": "Germany",
    "country_code": "DE",
    "iata": "OBF",
    "icao": "EDMO",
    "lat": "48.081364",
    "longitude": "11.283067",
    "alt": "1947",
    "timezone": "1",
    "dst": "E",
    "continent": "Europe"
  },
  {
    "name": "Paderborn Lippstadt",
    "city": "Paderborn",
    "country": "Germany",
    "country_code": "DE",
    "iata": "PAD",
    "icao": "EDLP",
    "lat": "51.614089",
    "longitude": "8.616317",
    "alt": "699",
    "timezone": "1",
    "dst": "E",
    "continent": "Europe"
  },
  {
    "name": "Ramstein Ab",
    "city": "Ramstein",
    "country": "Germany",
    "country_code": "DE",
    "iata": "RMS",
    "icao": "ETAR",
    "lat": "49.436911",
    "longitude": "7.600283",
    "alt": "776",
    "timezone": "1",
    "dst": "E",
    "continent": "Europe"
  },
  {
    "name": "Regensburg HBF",
    "city": "Regensburg",
    "country": "Germany",
    "country_code": "DE",
    "iata": "RGB",
    "icao": "REGE",
    "lat": "49.022",
    "longitude": "12.1111",
    "alt": "1200",
    "timezone": "2",
    "dst": "E",
    "continent": "Europe"
  },
  {
    "name": "Rheine Bentlage",
    "city": "Rheine",
    "country": "Germany",
    "country_code": "DE",
    "iata": "ZPQ",
    "icao": "N",
    "lat": "52.27656",
    "longitude": "7.43843",
    "alt": "120",
    "timezone": "1",
    "dst": "E",
    "continent": "Europe"
  },
  {
    "name": "Saarbrucken",
    "city": "Saarbruecken",
    "country": "Germany",
    "country_code": "DE",
    "iata": "SCN",
    "icao": "EDDR",
    "lat": "49.214553",
    "longitude": "7.109508",
    "alt": "1058",
    "timezone": "1",
    "dst": "E",
    "continent": "Europe"
  },
  {
    "name": "Schonefeld",
    "city": "Berlin",
    "country": "Germany",
    "country_code": "DE",
    "iata": "SXF",
    "icao": "EDDB",
    "lat": "52.380001",
    "longitude": "13.5225",
    "alt": "157",
    "timezone": "1",
    "dst": "E",
    "continent": "Europe"
  },
  {
    "name": "Schwerin Parchim",
    "city": "Parchim",
    "country": "Germany",
    "country_code": "DE",
    "iata": "SZW",
    "icao": "EDOP",
    "lat": "53.426997",
    "longitude": "11.783436",
    "alt": "166",
    "timezone": "1",
    "dst": "E",
    "continent": "Europe"
  },
  {
    "name": "Sonderlandeplatz Norden-Norddeich",
    "city": "Norden",
    "country": "Germany",
    "country_code": "DE",
    "iata": "NOE",
    "icao": "EDWS",
    "lat": "53.632221",
    "longitude": "7.191389",
    "alt": "3",
    "timezone": "1",
    "dst": "E",
    "continent": "Europe"
  },
  {
    "name": "Spangdahlem Ab",
    "city": "Spangdahlem",
    "country": "Germany",
    "country_code": "DE",
    "iata": "SPM",
    "icao": "ETAD",
    "lat": "49.972667",
    "longitude": "6.6925",
    "alt": "1197",
    "timezone": "1",
    "dst": "E",
    "continent": "Europe"
  },
  {
    "name": "Speyer",
    "city": "Speyer",
    "country": "Germany",
    "country_code": "DE",
    "iata": "ZQC",
    "icao": "EDRY",
    "lat": "49.302776",
    "longitude": "8.451195",
    "alt": "312",
    "timezone": "1",
    "dst": "E",
    "continent": "Europe"
  },
  {
    "name": "St. Peter-Ording Airport",
    "city": "Sankt Peter-Ording",
    "country": "Germany",
    "country_code": "DE",
    "iata": "PSH",
    "icao": "EDXO",
    "lat": "54.3089",
    "longitude": "8.68694",
    "alt": "7",
    "timezone": "1",
    "dst": "E",
    "continent": "Europe"
  },
  {
    "name": "Stendal Borstel",
    "city": "Stendal",
    "country": "Germany",
    "country_code": "DE",
    "iata": "ZSN",
    "icao": "EDOV",
    "lat": "52.627778",
    "longitude": "11.818333",
    "alt": "184",
    "timezone": "1",
    "dst": "E",
    "continent": "Europe"
  },
  {
    "name": "Stuttgart",
    "city": "Stuttgart",
    "country": "Germany",
    "country_code": "DE",
    "iata": "STR",
    "icao": "EDDS",
    "lat": "48.689878",
    "longitude": "9.221964",
    "alt": "1276",
    "timezone": "1",
    "dst": "E",
    "continent": "Europe"
  },
  {
    "name": "Stuttgart Railway Station",
    "city": "Stuttgart",
    "country": "Germany",
    "country_code": "DE",
    "iata": "ZWS",
    "icao": "N",
    "lat": "48.783611",
    "longitude": "9.181667",
    "alt": "200",
    "timezone": "1",
    "dst": "E",
    "continent": "Europe"
  },
  {
    "name": "Tegel",
    "city": "Berlin",
    "country": "Germany",
    "country_code": "DE",
    "iata": "TXL",
    "icao": "EDDT",
    "lat": "52.559686",
    "longitude": "13.287711",
    "alt": "122",
    "timezone": "1",
    "dst": "E",
    "continent": "Europe"
  },
  {
    "name": "Tempelhof",
    "city": "Berlin",
    "country": "Germany",
    "country_code": "DE",
    "iata": "THF",
    "icao": "EDDI",
    "lat": "52.473025",
    "longitude": "13.403944",
    "alt": "167",
    "timezone": "1",
    "dst": "E",
    "continent": "Europe"
  },
  {
    "name": "Treuchtlingen BF",
    "city": "Treuchtlingen",
    "country": "Germany",
    "country_code": "DE",
    "iata": "TLG",
    "icao": "TREU",
    "lat": "49.04",
    "longitude": "11.081944",
    "alt": "1200",
    "timezone": "2",
    "dst": "E",
    "continent": "Europe"
  },
  {
    "name": "Trier Fohren",
    "city": "Trier",
    "country": "Germany",
    "country_code": "DE",
    "iata": "ZQF",
    "icao": "EDRT",
    "lat": "49.8635",
    "longitude": "6.788167",
    "alt": "665",
    "timezone": "1",
    "dst": "E",
    "continent": "Europe"
  },
  {
    "name": "Verkehrslandeplatz Juist",
    "city": "Juist",
    "country": "Germany",
    "country_code": "DE",
    "iata": "JUI",
    "icao": "EDWJ",
    "lat": "53.681572",
    "longitude": "7.055731",
    "alt": "6",
    "timezone": "1",
    "dst": "E",
    "continent": "Europe"
  },
  {
    "name": "Wangerooge Airport",
    "city": "Wangerooge",
    "country": "Germany",
    "country_code": "DE",
    "iata": "AGE",
    "icao": "EDWG",
    "lat": "53.7828",
    "longitude": "7.91389",
    "alt": "7",
    "timezone": "1",
    "dst": "E",
    "continent": "Europe"
  },
  {
    "name": "Westerland Sylt",
    "city": "Westerland",
    "country": "Germany",
    "country_code": "DE",
    "iata": "GWT",
    "icao": "EDXW",
    "lat": "54.91325",
    "longitude": "8.340472",
    "alt": "51",
    "timezone": "1",
    "dst": "E",
    "continent": "Europe"
  },
  {
    "name": "Wilhelmshaven Mariensiel",
    "city": "Wilhelmshaven",
    "country": "Germany",
    "country_code": "DE",
    "iata": "WVN",
    "icao": "EDWI",
    "lat": "53.504833",
    "longitude": "8.053333",
    "alt": "16",
    "timezone": "1",
    "dst": "E",
    "continent": "Europe"
  },
  {
    "name": "Wurzburg HBF",
    "city": "Wurzburg",
    "country": "Germany",
    "country_code": "DE",
    "iata": "WZB",
    "icao": "WURZ",
    "lat": "49.7999",
    "longitude": "9.95555",
    "alt": "1000",
    "timezone": "2",
    "dst": "E",
    "continent": "Europe"
  },
  {
    "name": "Zweibruecken",
    "city": "Zweibruecken",
    "country": "Germany",
    "country_code": "DE",
    "iata": "ZQW",
    "icao": "N",
    "lat": "49.209445",
    "longitude": "7.401323",
    "alt": "1132",
    "timezone": "1",
    "dst": "E",
    "continent": "Europe"
  }
]
