[
  {
    "name": "Aberdeen Regional Airport",
    "city": "Aberdeen",
    "country": "United States",
    "country_code": "US",
    "iata": "ABR",
    "icao": "KABR",
    "lat": "45.4491",
    "longitude": "-98.4218",
    "alt": "1302",
    "timezone": "-6",
    "dst": "A",
    "continent": "North America"
  },
  {
    "name": "Abilene Rgnl",
    "city": "Abilene",
    "country": "United States",
    "country_code": "US",
    "iata": "ABI",
    "icao": "KABI",
    "lat": "32.411319",
    "longitude": "-99.681897",
    "alt": "1791",
    "timezone": "-6",
    "dst": "A",
    "continent": "North America"
  },
  {
    "name": "Abraham Lincoln Capital",
    "city": "Springfield",
    "country": "United States",
    "country_code": "US",
    "iata": "SPI",
    "icao": "KSPI",
    "lat": "39.8441",
    "longitude": "-89.677889",
    "alt": "597",
    "timezone": "-6",
    "dst": "A",
    "continent": "North America"
  },
  {
    "name": "Acadiana Rgnl",
    "city": "Louisiana",
    "country": "United States",
    "country_code": "US",
    "iata": "ARA",
    "icao": "KARA",
    "lat": "30.037758",
    "longitude": "-91.883896",
    "alt": "24",
    "timezone": "-6",
    "dst": "A",
    "continent": "North America"
  },
  {
    "name": "Adak Airport",
    "city": "Adak Island",
    "country": "United States",
    "country_code": "US",
    "iata": "ADK",
    "icao": "PADK",
    "lat": "51.878",
    "longitude": "-176.646",
    "alt": "18",
    "timezone": "-10",
    "dst": "A",
    "continent": "North America"
  },
  {
    "name": "Adams Fld",
    "city": "Little Rock",
    "country": "United States",
    "country_code": "US",
    "iata": "LIT",
    "icao": "KLIT",
    "lat": "34.729444",
    "longitude": "-92.224306",
    "alt": "262",
    "timezone": "-6",
    "dst": "A",
    "continent": "North America"
  },
  {
    "name": "Addison",
    "city": "Addison",
    "country": "United States",
    "country_code": "US",
    "iata": "ADS",
    "icao": "KADS",
    "lat": "32.9685594",
    "longitude": "-96.8364478",
    "alt": "644",
    "timezone": "-5",
    "dst": "A",
    "continent": "North America"
  },
  {
    "name": "Adirondack Regional Airport",
    "city": "Saranac Lake",
    "country": "United States",
    "country_code": "US",
    "iata": "SLK",
    "icao": "KSLK",
    "lat": "44.3853",
    "longitude": "-74.2062",
    "alt": "1663",
    "timezone": "-5",
    "dst": "A",
    "continent": "North America"
  },
  {
    "name": "Akhiok Airport",
    "city": "Akhiok",
    "country": "United States",
    "country_code": "US",
    "iata": "AKK",
    "icao": "PAKH",
    "lat": "56.938611",
    "longitude": "-154.1825",
    "alt": "44",
    "timezone": "-9",
    "dst": "A",
    "continent": "North America"
  },
  {
    "name": "Akiak Airport",
    "city": "Akiak",
    "country": "United States",
    "country_code": "US",
    "iata": "AKI",
    "icao": "PFAK",
    "lat": "60.902778",
    "longitude": "-161.230556",
    "alt": "30",
    "timezone": "-9",
    "dst": "A",
    "continent": "North America"
  },
  {
    "name": "Akron Canton Regional Airport",
    "city": "Akron",
    "country": "United States",
    "country_code": "US",
    "iata": "CAK",
    "icao": "KCAK",
    "lat": "40.9160833",
    "longitude": "-81.4421944",
    "alt": "1228",
    "timezone": "-5",
    "dst": "A",
    "continent": "North America"
  },
  {
    "name": "Akutan Seaplane Base",
    "city": "Akutan",
    "country": "United States",
    "country_code": "US",
    "iata": "KQA",
    "icao": "KQA",
    "lat": "54.1325",
    "longitude": "-165.785",
    "alt": "0",
    "timezone": "-9",
    "dst": "A",
    "continent": "North America"
  },
  {
    "name": "Alakanuk Airport",
    "city": "Alakanuk",
    "country": "United States",
    "country_code": "US",
    "iata": "AUK",
    "icao": "PAUK",
    "lat": "62.68",
    "longitude": "-164.66",
    "alt": "10",
    "timezone": "-9",
    "dst": "A",
    "continent": "North America"
  },
  {
    "name": "Alamogordo White Sands Regional Airport",
    "city": "Alamogordo",
    "country": "United States",
    "country_code": "US",
    "iata": "ALM",
    "icao": "KALM",
    "lat": "32.8399",
    "longitude": "-105.991",
    "alt": "4200",
    "timezone": "-7",
    "dst": "A",
    "continent": "North America"
  },
  {
    "name": "Albany Intl",
    "city": "Albany",
    "country": "United States",
    "country_code": "US",
    "iata": "ALB",
    "icao": "KALB",
    "lat": "42.748267",
    "longitude": "-73.801692",
    "alt": "285",
    "timezone": "-5",
    "dst": "A",
    "continent": "North America"
  },
  {
    "name": "Albert J Ellis",
    "city": "Jacksonville NC",
    "country": "United States",
    "country_code": "US",
    "iata": "OAJ",
    "icao": "KOAJ",
    "lat": "34.829164",
    "longitude": "-77.612139",
    "alt": "94",
    "timezone": "-5",
    "dst": "A",
    "continent": "North America"
  },
  {
    "name": "Albert Whitted",
    "city": "St. Petersburg",
    "country": "United States",
    "country_code": "US",
    "iata": "SPG",
    "icao": "KSPG",
    "lat": "27.765111",
    "longitude": "-82.626972",
    "alt": "7",
    "timezone": "-5",
    "dst": "A",
    "continent": "North America"
  },
  {
    "name": "Albuquerque International Sunport",
    "city": "Albuquerque",
    "country": "United States",
    "country_code": "US",
    "iata": "ABQ",
    "icao": "KABQ",
    "lat": "35.0402222",
    "longitude": "-106.6091944",
    "alt": "5355",
    "timezone": "-7",
    "dst": "A",
    "continent": "North America"
  },
  {
    "name": "Albuquerque Intl Sunport",
    "city": "Kirtland A.f.b.",
    "country": "United States",
    "country_code": "US",
    "iata": "IKR",
    "icao": "KIKR",
    "lat": "35.040222",
    "longitude": "-106.609194",
    "alt": "5355",
    "timezone": "-7",
    "dst": "A",
    "continent": "North America"
  },
  {
    "name": "Aleknagik Airport",
    "city": "Aleknagik",
    "country": "United States",
    "country_code": "US",
    "iata": "WKK",
    "icao": "5A8",
    "lat": "59.2826",
    "longitude": "-158.618",
    "alt": "66",
    "timezone": "-9",
    "dst": "A",
    "continent": "North America"
  },
  {
    "name": "Alexandria",
    "city": "Alexandria",
    "country": "United States",
    "country_code": "US",
    "iata": "ALX",
    "icao": "ALX_",
    "lat": "38.806346",
    "longitude": "-77.0621",
    "alt": "1",
    "timezone": "-5",
    "dst": "A",
    "continent": "North America"
  },
  {
    "name": "Alexandria Intl",
    "city": "Alexandria",
    "country": "United States",
    "country_code": "US",
    "iata": "AEX",
    "icao": "KAEX",
    "lat": "31.3274",
    "longitude": "-92.549833",
    "alt": "89",
    "timezone": "-6",
    "dst": "A",
    "continent": "North America"
  },
  {
    "name": "Alice Intl",
    "city": "Alice",
    "country": "United States",
    "country_code": "US",
    "iata": "ALI",
    "icao": "KALI",
    "lat": "27.740889",
    "longitude": "-98.026944",
    "alt": "178",
    "timezone": "-6",
    "dst": "A",
    "continent": "North America"
  },
  {
    "name": "Alitak Seaplane Base",
    "city": "Lazy Bay",
    "country": "United States",
    "country_code": "US",
    "iata": "ALZ",
    "icao": "N",
    "lat": "56.899444",
    "longitude": "-154.247778",
    "alt": "0",
    "timezone": "-9",
    "dst": "A",
    "continent": "North America"
  },
  {
    "name": "Allakaket Airport",
    "city": "Allakaket",
    "country": "United States",
    "country_code": "US",
    "iata": "AET",
    "icao": "PFAL",
    "lat": "66.5519",
    "longitude": "-152.6222",
    "alt": "441",
    "timezone": "-8",
    "dst": "A",
    "continent": "North America"
  },
  {
    "name": "Allegheny County Airport",
    "city": "Pittsburgh",
    "country": "United States",
    "country_code": "US",
    "iata": "AGC",
    "icao": "KAGC",
    "lat": "40.3544",
    "longitude": "-79.9302",
    "alt": "1252",
    "timezone": "-5",
    "dst": "A",
    "continent": "North America"
  },
  {
    "name": "Allen Aaf",
    "city": "Delta Junction",
    "country": "United States",
    "country_code": "US",
    "iata": "BIG",
    "icao": "PABI",
    "lat": "63.994547",
    "longitude": "-145.721642",
    "alt": "1291",
    "timezone": "-9",
    "dst": "A",
    "continent": "North America"
  },
  {
    "name": "Alliance Municipal Airport",
    "city": "Alliance",
    "country": "United States",
    "country_code": "US",
    "iata": "AIA",
    "icao": "KAIA",
    "lat": "42.053333",
    "longitude": "-102.803889",
    "alt": "3931",
    "timezone": "-7",
    "dst": "A",
    "continent": "North America"
  },
  {
    "name": "Alpena County Regional Airport",
    "city": "Alpena",
    "country": "United States",
    "country_code": "US",
    "iata": "APN",
    "icao": "KAPN",
    "lat": "45.0781",
    "longitude": "-83.5603",
    "alt": "689",
    "timezone": "-5",
    "dst": "A",
    "continent": "North America"
  },
  {
    "name": "Altoona Blair Co",
    "city": "Altoona",
    "country": "United States",
    "country_code": "US",
    "iata": "AOO",
    "icao": "KAOO",
    "lat": "40.296372",
    "longitude": "-78.320022",
    "alt": "1504",
    "timezone": "-5",
    "dst": "A",
    "continent": "North America"
  },
  {
    "name": "Altus Afb",
    "city": "Altus",
    "country": "United States",
    "country_code": "US",
    "iata": "LTS",
    "icao": "KLTS",
    "lat": "34.667067",
    "longitude": "-99.266681",
    "alt": "1382",
    "timezone": "-6",
    "dst": "A",
    "continent": "North America"
  },
  {
    "name": "Ambler Airport",
    "city": "Ambler",
    "country": "United States",
    "country_code": "US",
    "iata": "ABL",
    "icao": "PAFM",
    "lat": "67.106389",
    "longitude": "-157.8575",
    "alt": "334",
    "timezone": "-9",
    "dst": "A",
    "continent": "North America"
  },
  {
    "name": "Amook Bay Seaplane Base",
    "city": "Amook Bay",
    "country": "United States",
    "country_code": "US",
    "iata": "AOS",
    "icao": "N",
    "lat": "57.471389",
    "longitude": "-153.815278",
    "alt": "0",
    "timezone": "-9",
    "dst": "A",
    "continent": "North America"
  },
  {
    "name": "Anacortes Airport",
    "city": "Anacortes",
    "country": "United States",
    "country_code": "US",
    "iata": "OTS",
    "icao": "N",
    "lat": "48.498889",
    "longitude": "-122.6625",
    "alt": "241",
    "timezone": "-8",
    "dst": "A",
    "continent": "North America"
  },
  {
    "name": "Anaktuvuk Pass Airport",
    "city": "Anaktuvuk Pass",
    "country": "United States",
    "country_code": "US",
    "iata": "AKP",
    "icao": "PAKP",
    "lat": "68.1336",
    "longitude": "-151.743",
    "alt": "2103",
    "timezone": "-9",
    "dst": "A",
    "continent": "North America"
  },
  {
    "name": "Anderson Rgnl",
    "city": "Andersen",
    "country": "United States",
    "country_code": "US",
    "iata": "AND",
    "icao": "KAND",
    "lat": "34.494583",
    "longitude": "-82.709389",
    "alt": "782",
    "timezone": "-5",
    "dst": "A",
    "continent": "North America"
  },
  {
    "name": "Andrews Afb",
    "city": "Camp Springs",
    "country": "United States",
    "country_code": "US",
    "iata": "ADW",
    "icao": "KADW",
    "lat": "38.810806",
    "longitude": "-76.867028",
    "alt": "280",
    "timezone": "-5",
    "dst": "A",
    "continent": "North America"
  },
  {
    "name": "Angelina Co",
    "city": "Lufkin",
    "country": "United States",
    "country_code": "US",
    "iata": "LFK",
    "icao": "KLFK",
    "lat": "31.234014",
    "longitude": "-94.75",
    "alt": "296",
    "timezone": "-6",
    "dst": "A",
    "continent": "North America"
  },
  {
    "name": "Angoon Seaplane Base",
    "city": "Angoon",
    "country": "United States",
    "country_code": "US",
    "iata": "AGN",
    "icao": "PAGN",
    "lat": "57.503611",
    "longitude": "-134.585",
    "alt": "0",
    "timezone": "-9",
    "dst": "A",
    "continent": "North America"
  },
  {
    "name": "Aniak Airport",
    "city": "Aniak",
    "country": "United States",
    "country_code": "US",
    "iata": "ANI",
    "icao": "PANI",
    "lat": "61.5816",
    "longitude": "-159.543",
    "alt": "88",
    "timezone": "-9",
    "dst": "A",
    "continent": "North America"
  },
  {
    "name": "Ankeny Regl Airport",
    "city": "Ankeny",
    "country": "United States",
    "country_code": "US",
    "iata": "IKV",
    "icao": "KIKV",
    "lat": "41.691389",
    "longitude": "-93.566389",
    "alt": "910",
    "timezone": "-6",
    "dst": "A",
    "continent": "North America"
  },
  {
    "name": "Annette Island",
    "city": "Annette Island",
    "country": "United States",
    "country_code": "US",
    "iata": "ANN",
    "icao": "PANT",
    "lat": "55.042436",
    "longitude": "-131.572233",
    "alt": "119",
    "timezone": "-9",
    "dst": "A",
    "continent": "North America"
  },
  {
    "name": "Anniston Metro",
    "city": "Anniston",
    "country": "United States",
    "country_code": "US",
    "iata": "ANB",
    "icao": "KANB",
    "lat": "33.588167",
    "longitude": "-85.858111",
    "alt": "612",
    "timezone": "-6",
    "dst": "A",
    "continent": "North America"
  },
  {
    "name": "Anvik Airport",
    "city": "Anvik",
    "country": "United States",
    "country_code": "US",
    "iata": "ANV",
    "icao": "PANV",
    "lat": "62.6467",
    "longitude": "-160.191",
    "alt": "309",
    "timezone": "-9",
    "dst": "A",
    "continent": "North America"
  },
  {
    "name": "Apalachicola Regional Airport",
    "city": "Apalachicola",
    "country": "United States",
    "country_code": "US",
    "iata": "AAF",
    "icao": "KAAF",
    "lat": "29.7276066",
    "longitude": "-85.0274416",
    "alt": "20",
    "timezone": "-6",
    "dst": "A",
    "continent": "North America"
  },
  {
    "name": "Appleton",
    "city": "Appleton",
    "country": "United States",
    "country_code": "US",
    "iata": "ATW",
    "icao": "KATW",
    "lat": "44.257526",
    "longitude": "-88.507576",
    "alt": "680",
    "timezone": "-6",
    "dst": "A",
    "continent": "North America"
  },
  {
    "name": "Aransas County Airport",
    "city": "Rockport",
    "country": "United States",
    "country_code": "US",
    "iata": "RKP",
    "icao": "KRKP",
    "lat": "28.0862222",
    "longitude": "-97.0436944",
    "alt": "24",
    "timezone": "-6",
    "dst": "A",
    "continent": "North America"
  },
  {
    "name": "Arcata",
    "city": "Arcata CA",
    "country": "United States",
    "country_code": "US",
    "iata": "ACV",
    "icao": "KACV",
    "lat": "40.978111",
    "longitude": "-124.108611",
    "alt": "221",
    "timezone": "-8",
    "dst": "A",
    "continent": "North America"
  },
  {
    "name": "Arctic Village Airport",
    "city": "Arctic Village",
    "country": "United States",
    "country_code": "US",
    "iata": "ARC",
    "icao": "PARC",
    "lat": "68.1147",
    "longitude": "-145.579",
    "alt": "2092",
    "timezone": "-9",
    "dst": "A",
    "continent": "North America"
  },
  {
    "name": "Ardmore Muni",
    "city": "Ardmore",
    "country": "United States",
    "country_code": "US",
    "iata": "ADM",
    "icao": "KADM",
    "lat": "34.300833",
    "longitude": "-97.008889",
    "alt": "762",
    "timezone": "-6",
    "dst": "A",
    "continent": "North America"
  },
  {
    "name": "Arkansas Intl",
    "city": "Blytheville",
    "country": "United States",
    "country_code": "US",
    "iata": "BYH",
    "icao": "KBYH",
    "lat": "35.964347",
    "longitude": "-89.943956",
    "alt": "254",
    "timezone": "-6",
    "dst": "A",
    "continent": "North America"
  },
  {
    "name": "Arlington Municipal",
    "city": "Arlington",
    "country": "United States",
    "country_code": "US",
    "iata": "GKY",
    "icao": "KGKY",
    "lat": "32.6638611",
    "longitude": "-97.0942778",
    "alt": "628",
    "timezone": "-5",
    "dst": "A",
    "continent": "North America"
  },
  {
    "name": "Arnold Palmer Regional Airport",
    "city": "Latrobe",
    "country": "United States",
    "country_code": "US",
    "iata": "LBE",
    "icao": "KLBE",
    "lat": "40.2759",
    "longitude": "-79.4048",
    "alt": "1185",
    "timezone": "-5",
    "dst": "A",
    "continent": "North America"
  },
  {
    "name": "Arthur Dunn Airpark",
    "city": "Titusville",
    "country": "United States",
    "country_code": "US",
    "iata": "X21",
    "icao": "N",
    "lat": "28.622552",
    "longitude": "-80.83541",
    "alt": "30",
    "timezone": "-5",
    "dst": "A",
    "continent": "North America"
  },
  {
    "name": "Asheville Regional Airport",
    "city": "Asheville",
    "country": "United States",
    "country_code": "US",
    "iata": "AVL",
    "icao": "KAVL",
    "lat": "35.436194",
    "longitude": "-82.541806",
    "alt": "2165",
    "timezone": "-5",
    "dst": "A",
    "continent": "North America"
  },
  {
    "name": "Aspen Pitkin County Sardy Field",
    "city": "Aspen",
    "country": "United States",
    "country_code": "US",
    "iata": "ASE",
    "icao": "KASE",
    "lat": "39.2232",
    "longitude": "-106.869",
    "alt": "7820",
    "timezone": "-7",
    "dst": "A",
    "continent": "North America"
  },
  {
    "name": "Astoria Regional Airport",
    "city": "Astoria",
    "country": "United States",
    "country_code": "US",
    "iata": "AST",
    "icao": "KAST",
    "lat": "46.157972",
    "longitude": "-123.878694",
    "alt": "15",
    "timezone": "-8",
    "dst": "A",
    "continent": "North America"
  },
  {
    "name": "Athens Ben Epps Airport",
    "city": "Athens",
    "country": "United States",
    "country_code": "US",
    "iata": "AHN",
    "icao": "KAHN",
    "lat": "33.9486",
    "longitude": "-83.3263",
    "alt": "808",
    "timezone": "-5",
    "dst": "A",
    "continent": "North America"
  },
  {
    "name": "Atka Airport",
    "city": "Atka",
    "country": "United States",
    "country_code": "US",
    "iata": "AKB",
    "icao": "PAAK",
    "lat": "52.220278",
    "longitude": "-174.206389",
    "alt": "56",
    "timezone": "-9",
    "dst": "A",
    "continent": "North America"
  },
  {
    "name": "Atlanta Regional Airport - Falcon Field",
    "city": "Atlanta",
    "country": "United States",
    "country_code": "US",
    "iata": "FFC",
    "icao": "KFFC",
    "lat": "33.35725",
    "longitude": "-84.5718333",
    "alt": "808",
    "timezone": "-4",
    "dst": "A",
    "continent": "North America"
  },
  {
    "name": "Atlantic City Intl",
    "city": "Atlantic City",
    "country": "United States",
    "country_code": "US",
    "iata": "ACY",
    "icao": "KACY",
    "lat": "39.457583",
    "longitude": "-74.577167",
    "alt": "75",
    "timezone": "-5",
    "dst": "A",
    "continent": "North America"
  },
  {
    "name": "Atmautluak Airport",
    "city": "Atmautluak",
    "country": "United States",
    "country_code": "US",
    "iata": "369",
    "icao": "N",
    "lat": "60.866667",
    "longitude": "-162.273056",
    "alt": "18",
    "timezone": "-10",
    "dst": "A",
    "continent": "North America"
  },
  {
    "name": "Atqasuk Edward Burnell Sr Memorial Airport",
    "city": "Atqasuk",
    "country": "United States",
    "country_code": "US",
    "iata": "ATK",
    "icao": "PATQ",
    "lat": "70.4673",
    "longitude": "-157.436",
    "alt": "96",
    "timezone": "-9",
    "dst": "A",
    "continent": "North America"
  },
  {
    "name": "Augusta Rgnl At Bush Fld",
    "city": "Bush Field",
    "country": "United States",
    "country_code": "US",
    "iata": "AGS",
    "icao": "KAGS",
    "lat": "33.369944",
    "longitude": "-81.9645",
    "alt": "144",
    "timezone": "-5",
    "dst": "A",
    "continent": "North America"
  },
  {
    "name": "Augusta State",
    "city": "Augusta",
    "country": "United States",
    "country_code": "US",
    "iata": "AUG",
    "icao": "KAUG",
    "lat": "44.320647",
    "longitude": "-69.797317",
    "alt": "352",
    "timezone": "-5",
    "dst": "A",
    "continent": "North America"
  },
  {
    "name": "Austin Bergstrom Intl",
    "city": "Austin",
    "country": "United States",
    "country_code": "US",
    "iata": "AUS",
    "icao": "KAUS",
    "lat": "30.194528",
    "longitude": "-97.669889",
    "alt": "542",
    "timezone": "-6",
    "dst": "A",
    "continent": "North America"
  },
  {
    "name": "Austin Straubel Intl",
    "city": "Green Bay",
    "country": "United States",
    "country_code": "US",
    "iata": "GRB",
    "icao": "KGRB",
    "lat": "44.485072",
    "longitude": "-88.129589",
    "alt": "695",
    "timezone": "-6",
    "dst": "A",
    "continent": "North America"
  },
  {
    "name": "Avalon",
    "city": "Catalina Island",
    "country": "United States",
    "country_code": "US",
    "iata": "AVX",
    "icao": "KAVX",
    "lat": "33.405",
    "longitude": "-118.415833",
    "alt": "1602",
    "timezone": "-8",
    "dst": "A",
    "continent": "North America"
  },
  {
    "name": "Baldwin County Airport",
    "city": "Milledgeville",
    "country": "United States",
    "country_code": "US",
    "iata": "MLJ",
    "icao": "KMLJ",
    "lat": "33.154225",
    "longitude": "-83.2414139",
    "alt": "385",
    "timezone": "-4",
    "dst": "A",
    "continent": "North America"
  },
  {
    "name": "Baltimore Washington Intl",
    "city": "Baltimore",
    "country": "United States",
    "country_code": "US",
    "iata": "BWI",
    "icao": "KBWI",
    "lat": "39.175361",
    "longitude": "-76.668333",
    "alt": "146",
    "timezone": "-5",
    "dst": "A",
    "continent": "North America"
  },
  {
    "name": "Bangor Intl",
    "city": "Bangor",
    "country": "United States",
    "country_code": "US",
    "iata": "BGR",
    "icao": "KBGR",
    "lat": "44.807444",
    "longitude": "-68.828139",
    "alt": "192",
    "timezone": "-5",
    "dst": "A",
    "continent": "North America"
  },
  {
    "name": "Barking Sands Pmrf",
    "city": "Barking Sands",
    "country": "United States",
    "country_code": "US",
    "iata": "BKH",
    "icao": "PHBK",
    "lat": "22.022833",
    "longitude": "-159.785",
    "alt": "23",
    "timezone": "-10",
    "dst": "A",
    "continent": "North America"
  },
  {
    "name": "Barkley Regional Airport",
    "city": "PADUCAH",
    "country": "United States",
    "country_code": "US",
    "iata": "PAH",
    "icao": "KPAH",
    "lat": "37.0602875",
    "longitude": "-88.7729583",
    "alt": "410",
    "timezone": "-6",
    "dst": "A",
    "continent": "North America"
  },
  {
    "name": "Barksdale Afb",
    "city": "Shreveport",
    "country": "United States",
    "country_code": "US",
    "iata": "BAD",
    "icao": "KBAD",
    "lat": "32.50182",
    "longitude": "-93.662674",
    "alt": "166",
    "timezone": "-6",
    "dst": "A",
    "continent": "North America"
  },
  {
    "name": "Barnes Municipal",
    "city": "Westfield",
    "country": "United States",
    "country_code": "US",
    "iata": "BAF",
    "icao": "KBAF",
    "lat": "42.1579472",
    "longitude": "-72.715875",
    "alt": "270",
    "timezone": "-4",
    "dst": "A",
    "continent": "North America"
  },
  {
    "name": "Barnstable Muni Boardman Polando Fld",
    "city": "Barnstable",
    "country": "United States",
    "country_code": "US",
    "iata": "HYA",
    "icao": "KHYA",
    "lat": "41.669336",
    "longitude": "-70.280356",
    "alt": "55",
    "timezone": "-5",
    "dst": "A",
    "continent": "North America"
  },
  {
    "name": "Barrow County Airport",
    "city": "Winder",
    "country": "United States",
    "country_code": "US",
    "iata": "WDR",
    "icao": "KWDR",
    "lat": "33.9828611",
    "longitude": "-83.6674167",
    "alt": "943",
    "timezone": "-4",
    "dst": "A",
    "continent": "North America"
  },
  {
    "name": "Barter Island Lrrs",
    "city": "Barter Island",
    "country": "United States",
    "country_code": "US",
    "iata": "BTI",
    "icao": "PABA",
    "lat": "70.133989",
    "longitude": "-143.581867",
    "alt": "2",
    "timezone": "-9",
    "dst": "A",
    "continent": "North America"
  },
  {
    "name": "Bartow Municipal Airport",
    "city": "Bartow",
    "country": "United States",
    "country_code": "US",
    "iata": "BOW",
    "icao": "KBOW",
    "lat": "27.9434",
    "longitude": "-81.7834",
    "alt": "125",
    "timezone": "-6",
    "dst": "U",
    "continent": "North America"
  },
  {
    "name": "Barwick Lafayette Airport",
    "city": "LaFayette",
    "country": "United States",
    "country_code": "US",
    "iata": "9A5",
    "icao": "N",
    "lat": "34.6884792",
    "longitude": "-85.2903319",
    "alt": "777",
    "timezone": "-4",
    "dst": "A",
    "continent": "North America"
  },
  {
    "name": "Baton Rouge Metro Ryan Fld",
    "city": "Baton Rouge",
    "country": "United States",
    "country_code": "US",
    "iata": "BTR",
    "icao": "KBTR",
    "lat": "30.533167",
    "longitude": "-91.149639",
    "alt": "70",
    "timezone": "-6",
    "dst": "A",
    "continent": "North America"
  },
  {
    "name": "Baudette Intl",
    "city": "Baudette",
    "country": "United States",
    "country_code": "US",
    "iata": "BDE",
    "icao": "KBDE",
    "lat": "48.728444",
    "longitude": "-94.612222",
    "alt": "1086",
    "timezone": "-6",
    "dst": "A",
    "continent": "North America"
  },
  {
    "name": "Beale Afb",
    "city": "Marysville",
    "country": "United States",
    "country_code": "US",
    "iata": "BAB",
    "icao": "KBAB",
    "lat": "39.136089",
    "longitude": "-121.436567",
    "alt": "113",
    "timezone": "-8",
    "dst": "A",
    "continent": "North America"
  },
  {
    "name": "Beaufort Mcas",
    "city": "Beaufort",
    "country": "United States",
    "country_code": "US",
    "iata": "NBC",
    "icao": "KNBC",
    "lat": "32.477411",
    "longitude": "-80.723161",
    "alt": "37",
    "timezone": "-5",
    "dst": "A",
    "continent": "North America"
  },
  {
    "name": "Beauregard Rgnl",
    "city": "Deridder",
    "country": "United States",
    "country_code": "US",
    "iata": "DRI",
    "icao": "KDRI",
    "lat": "30.831722",
    "longitude": "-93.339917",
    "alt": "202",
    "timezone": "-6",
    "dst": "A",
    "continent": "North America"
  },
  {
    "name": "Beaver Airport",
    "city": "Beaver",
    "country": "United States",
    "country_code": "US",
    "iata": "WBQ",
    "icao": "PAWB",
    "lat": "66.362222",
    "longitude": "-147.406667",
    "alt": "359",
    "timezone": "-9",
    "dst": "A",
    "continent": "North America"
  },
  {
    "name": "Bellingham Intl",
    "city": "Bellingham",
    "country": "United States",
    "country_code": "US",
    "iata": "BLI",
    "icao": "KBLI",
    "lat": "48.792694",
    "longitude": "-122.537528",
    "alt": "170",
    "timezone": "-8",
    "dst": "A",
    "continent": "North America"
  },
  {
    "name": "Bemidji Regional Airport",
    "city": "Bemidji",
    "country": "United States",
    "country_code": "US",
    "iata": "BJI",
    "icao": "KBJI",
    "lat": "47.510722",
    "longitude": "-94.934722",
    "alt": "1391",
    "timezone": "-6",
    "dst": "A",
    "continent": "North America"
  },
  {
    "name": "Bermuda Dunes Airport",
    "city": "Palm Springs",
    "country": "United States",
    "country_code": "US",
    "iata": "UDD",
    "icao": "KUDD",
    "lat": "33.7484375",
    "longitude": "-116.2748133",
    "alt": "73",
    "timezone": "-7",
    "dst": "A",
    "continent": "North America"
  },
  {
    "name": "Bert Mooney Airport",
    "city": "Butte",
    "country": "United States",
    "country_code": "US",
    "iata": "BTM",
    "icao": "KBTM",
    "lat": "45.954806",
    "longitude": "-112.497472",
    "alt": "5550",
    "timezone": "-7",
    "dst": "A",
    "continent": "North America"
  },
  {
    "name": "Bethel",
    "city": "Bethel",
    "country": "United States",
    "country_code": "US",
    "iata": "BET",
    "icao": "PABE",
    "lat": "60.779778",
    "longitude": "-161.838",
    "alt": "121",
    "timezone": "-9",
    "dst": "A",
    "continent": "North America"
  },
  {
    "name": "Bettles",
    "city": "Bettles",
    "country": "United States",
    "country_code": "US",
    "iata": "BTT",
    "icao": "PABT",
    "lat": "66.913944",
    "longitude": "-151.529056",
    "alt": "644",
    "timezone": "-9",
    "dst": "A",
    "continent": "North America"
  },
  {
    "name": "BFT County Airport",
    "city": "Beauford",
    "country": "United States",
    "country_code": "US",
    "iata": "BFT",
    "icao": "KBFT",
    "lat": "32.41083",
    "longitude": "-80.635",
    "alt": "500",
    "timezone": "-5",
    "dst": "A",
    "continent": "North America"
  },
  {
    "name": "Bicycle Lake Aaf",
    "city": "Fort Irwin",
    "country": "United States",
    "country_code": "US",
    "iata": "BYS",
    "icao": "KBYS",
    "lat": "35.280531",
    "longitude": "-116.630031",
    "alt": "2350",
    "timezone": "-8",
    "dst": "A",
    "continent": "North America"
  },
  {
    "name": "Big Bear City",
    "city": "Big Bear",
    "country": "United States",
    "country_code": "US",
    "iata": "L35",
    "icao": "N",
    "lat": "34.2637778",
    "longitude": "-116.8560278",
    "alt": "6725",
    "timezone": "-7",
    "dst": "A",
    "continent": "North America"
  },
  {
    "name": "Big Mountain Afs",
    "city": "Big Mountain",
    "country": "United States",
    "country_code": "US",
    "iata": "7AK",
    "icao": "PABM",
    "lat": "59.361247",
    "longitude": "-155.258822",
    "alt": "663",
    "timezone": "-9",
    "dst": "A",
    "continent": "North America"
  },
  {
    "name": "Big Timber Airport",
    "city": "Big Timber",
    "country": "United States",
    "country_code": "US",
    "iata": "6S0",
    "icao": "K6S0",
    "lat": "45.8063889",
    "longitude": "-109.9811111",
    "alt": "4492",
    "timezone": "-7",
    "dst": "A",
    "continent": "North America"
  },
  {
    "name": "Biggs Aaf",
    "city": "El Paso",
    "country": "United States",
    "country_code": "US",
    "iata": "BIF",
    "icao": "KBIF",
    "lat": "31.849528",
    "longitude": "-106.380039",
    "alt": "3948",
    "timezone": "-7",
    "dst": "A",
    "continent": "North America"
  },
  {
    "name": "Billings Logan International Airport",
    "city": "Billings",
    "country": "United States",
    "country_code": "US",
    "iata": "BIL",
    "icao": "KBIL",
    "lat": "45.80921",
    "longitude": "-108.537654",
    "alt": "3652",
    "timezone": "-7",
    "dst": "A",
    "continent": "North America"
  },
  {
    "name": "Birch Creek Airport",
    "city": "Brich Creek",
    "country": "United States",
    "country_code": "US",
    "iata": "KBC",
    "icao": "N",
    "lat": "66.256708",
    "longitude": "-145.815319",
    "alt": "450",
    "timezone": "-9",
    "dst": "A",
    "continent": "North America"
  },
  {
    "name": "Birmingham Intl",
    "city": "Birmingham",
    "country": "United States",
    "country_code": "US",
    "iata": "BHM",
    "icao": "KBHM",
    "lat": "33.562942",
    "longitude": "-86.75355",
    "alt": "644",
    "timezone": "-6",
    "dst": "A",
    "continent": "North America"
  },
  {
    "name": "Bisbee Douglas Intl",
    "city": "Douglas",
    "country": "United States",
    "country_code": "US",
    "iata": "DUG",
    "icao": "KDUG",
    "lat": "31.469028",
    "longitude": "-109.603667",
    "alt": "4154",
    "timezone": "-7",
    "dst": "A",
    "continent": "North America"
  },
  {
    "name": "Bishop International",
    "city": "Flint",
    "country": "United States",
    "country_code": "US",
    "iata": "FNT",
    "icao": "KFNT",
    "lat": "42.965424",
    "longitude": "-83.743629",
    "alt": "782",
    "timezone": "-5",
    "dst": "A",
    "continent": "North America"
  },
  {
    "name": "Bismarck Municipal Airport",
    "city": "Bismarck",
    "country": "United States",
    "country_code": "US",
    "iata": "BIS",
    "icao": "KBIS",
    "lat": "46.775842",
    "longitude": "-100.757931",
    "alt": "1661",
    "timezone": "-6",
    "dst": "A",
    "continent": "North America"
  },
  {
    "name": "Black Hills Airport-Clyde Ice Field",
    "city": "Spearfish-South Dakota",
    "country": "United States",
    "country_code": "US",
    "iata": "SPF",
    "icao": "KSPF",
    "lat": "44.4811407",
    "longitude": "-103.7860053",
    "alt": "3931",
    "timezone": "-7",
    "dst": "A",
    "continent": "North America"
  },
  {
    "name": "Black Rock",
    "city": "Zuni Pueblo",
    "country": "United States",
    "country_code": "US",
    "iata": "ZUN",
    "icao": "KZUN",
    "lat": "35.083228",
    "longitude": "-108.791778",
    "alt": "6454",
    "timezone": "-7",
    "dst": "A",
    "continent": "North America"
  },
  {
    "name": "Blakely Island Airport",
    "city": "Blakely Island",
    "country": "United States",
    "country_code": "US",
    "iata": "BYW",
    "icao": "N",
    "lat": "48.56025",
    "longitude": "-122.80243",
    "alt": "0",
    "timezone": "-8",
    "dst": "A",
    "continent": "North America"
  },
  {
    "name": "Block Island State Airport",
    "city": "Block Island",
    "country": "United States",
    "country_code": "US",
    "iata": "BID",
    "icao": "KBID",
    "lat": "41.168056",
    "longitude": "-71.577778",
    "alt": "108",
    "timezone": "-5",
    "dst": "A",
    "continent": "North America"
  },
  {
    "name": "Blue Grass",
    "city": "Lexington KY",
    "country": "United States",
    "country_code": "US",
    "iata": "LEX",
    "icao": "KLEX",
    "lat": "38.0365",
    "longitude": "-84.605889",
    "alt": "979",
    "timezone": "-5",
    "dst": "A",
    "continent": "North America"
  },
  {
    "name": "Blythe Airport",
    "city": "Blythe",
    "country": "United States",
    "country_code": "US",
    "iata": "BLH",
    "icao": "KBLH",
    "lat": "33.619167",
    "longitude": "-114.716889",
    "alt": "399",
    "timezone": "-8",
    "dst": "A",
    "continent": "North America"
  },
  {
    "name": "Bob Baker Memorial Airport",
    "city": "Kiana",
    "country": "United States",
    "country_code": "US",
    "iata": "IAN",
    "icao": "PAIK",
    "lat": "66.975833",
    "longitude": "-160.436667",
    "alt": "166",
    "timezone": "-9",
    "dst": "A",
    "continent": "North America"
  },
  {
    "name": "Bob Hope",
    "city": "Burbank",
    "country": "United States",
    "country_code": "US",
    "iata": "BUR",
    "icao": "KBUR",
    "lat": "34.200667",
    "longitude": "-118.358667",
    "alt": "778",
    "timezone": "-8",
    "dst": "A",
    "continent": "North America"
  },
  {
    "name": "Bob Sikes",
    "city": "Crestview",
    "country": "United States",
    "country_code": "US",
    "iata": "CEW",
    "icao": "KCEW",
    "lat": "30.778833",
    "longitude": "-86.522111",
    "alt": "213",
    "timezone": "-6",
    "dst": "A",
    "continent": "North America"
  },
  {
    "name": "Boca Raton",
    "city": "Boca Raton",
    "country": "United States",
    "country_code": "US",
    "iata": "BCT",
    "icao": "KBCT",
    "lat": "26.3785",
    "longitude": "-80.107694",
    "alt": "13",
    "timezone": "-5",
    "dst": "A",
    "continent": "North America"
  },
  {
    "name": "Boeing Fld King Co Intl",
    "city": "Seattle",
    "country": "United States",
    "country_code": "US",
    "iata": "BFI",
    "icao": "KBFI",
    "lat": "47.53",
    "longitude": "-122.301947",
    "alt": "21",
    "timezone": "-8",
    "dst": "A",
    "continent": "North America"
  },
  {
    "name": "Boire Field Airport",
    "city": "Nashua",
    "country": "United States",
    "country_code": "US",
    "iata": "ASH",
    "icao": "KASH",
    "lat": "42.78175",
    "longitude": "-71.5147778",
    "alt": "199",
    "timezone": "-4",
    "dst": "A",
    "continent": "North America"
  },
  {
    "name": "Boise Air Terminal",
    "city": "Boise",
    "country": "United States",
    "country_code": "US",
    "iata": "BOI",
    "icao": "KBOI",
    "lat": "43.564361",
    "longitude": "-116.222861",
    "alt": "2871",
    "timezone": "-7",
    "dst": "A",
    "continent": "North America"
  },
  {
    "name": "Boone Co",
    "city": "Harrison",
    "country": "United States",
    "country_code": "US",
    "iata": "HRO",
    "icao": "KHRO",
    "lat": "36.261519",
    "longitude": "-93.154728",
    "alt": "1365",
    "timezone": "-6",
    "dst": "A",
    "continent": "North America"
  },
  {
    "name": "Borrego Valley Airport",
    "city": "Borrego Springs",
    "country": "United States",
    "country_code": "US",
    "iata": "BXS",
    "icao": "KBXS",
    "lat": "33.2590278",
    "longitude": "-116.3209722",
    "alt": "520",
    "timezone": "-7",
    "dst": "A",
    "continent": "North America"
  },
  {
    "name": "Boulder City Municipal Airport",
    "city": "Boulder City",
    "country": "United States",
    "country_code": "US",
    "iata": "BLD",
    "icao": "KBVU",
    "lat": "35.5651",
    "longitude": "-114.514",
    "alt": "2201",
    "timezone": "-8",
    "dst": "U",
    "continent": "North America"
  },
  {
    "name": "Bowerman Field",
    "city": "Hoquiam",
    "country": "United States",
    "country_code": "US",
    "iata": "HQM",
    "icao": "N",
    "lat": "46.9711944",
    "longitude": "-123.9365556",
    "alt": "18",
    "timezone": "-8",
    "dst": "A",
    "continent": "North America"
  },
  {
    "name": "Bowling Green-Warren County Regional Airport",
    "city": "Bowling Green",
    "country": "United States",
    "country_code": "US",
    "iata": "BWG",
    "icao": "KBWG",
    "lat": "36.9645278",
    "longitude": "-86.4196667",
    "alt": "547",
    "timezone": "-5",
    "dst": "A",
    "continent": "North America"
  },
  {
    "name": "Bowman Fld",
    "city": "Louisville",
    "country": "United States",
    "country_code": "US",
    "iata": "LOU",
    "icao": "KLOU",
    "lat": "38.228",
    "longitude": "-85.663722",
    "alt": "546",
    "timezone": "-5",
    "dst": "A",
    "continent": "North America"
  },
  {
    "name": "Bradford Regional Airport",
    "city": "Bradford",
    "country": "United States",
    "country_code": "US",
    "iata": "BFD",
    "icao": "KBFD",
    "lat": "41.8031",
    "longitude": "-78.6401",
    "alt": "2143",
    "timezone": "-5",
    "dst": "A",
    "continent": "North America"
  },
  {
    "name": "Bradley Intl",
    "city": "Windsor Locks",
    "country": "United States",
    "country_code": "US",
    "iata": "BDL",
    "icao": "KBDL",
    "lat": "41.938889",
    "longitude": "-72.683222",
    "alt": "173",
    "timezone": "-5",
    "dst": "A",
    "continent": "North America"
  },
  {
    "name": "Bradshaw Aaf",
    "city": "Bradshaw Field",
    "country": "United States",
    "country_code": "US",
    "iata": "BSF",
    "icao": "PHSF",
    "lat": "19.760056",
    "longitude": "-155.553717",
    "alt": "6190",
    "timezone": "-10",
    "dst": "A",
    "continent": "North America"
  },
  {
    "name": "Brainerd Lakes Rgnl",
    "city": "Brainerd",
    "country": "United States",
    "country_code": "US",
    "iata": "BRD",
    "icao": "KBRD",
    "lat": "46.398308",
    "longitude": "-94.138078",
    "alt": "1226",
    "timezone": "-6",
    "dst": "U",
    "continent": "North America"
  },
  {
    "name": "Branson LLC",
    "city": "Branson",
    "country": "United States",
    "country_code": "US",
    "iata": "BKG",
    "icao": "KBBG",
    "lat": "36.531994",
    "longitude": "-93.200556",
    "alt": "1302",
    "timezone": "-6",
    "dst": "A",
    "continent": "North America"
  },
  {
    "name": "Bremerton National",
    "city": "Bremerton",
    "country": "United States",
    "country_code": "US",
    "iata": "PWT",
    "icao": "KPWT",
    "lat": "47.490244",
    "longitude": "-122.764814",
    "alt": "444",
    "timezone": "-8",
    "dst": "A",
    "continent": "North America"
  },
  {
    "name": "Brevig Mission Airport",
    "city": "Brevig Mission",
    "country": "United States",
    "country_code": "US",
    "iata": "KTS",
    "icao": "PFKT",
    "lat": "65.331389",
    "longitude": "-166.465833",
    "alt": "35",
    "timezone": "-9",
    "dst": "A",
    "continent": "North America"
  },
  {
    "name": "Brigham City",
    "city": "Brigham City",
    "country": "United States",
    "country_code": "US",
    "iata": "BMC",
    "icao": "KBMC",
    "lat": "41.552",
    "longitude": "-112.062",
    "alt": "4229",
    "timezone": "-7",
    "dst": "A",
    "continent": "North America"
  },
  {
    "name": "Brookings Regional Airport",
    "city": "Brookings",
    "country": "United States",
    "country_code": "US",
    "iata": "BKX",
    "icao": "BKX",
    "lat": "44.3048",
    "longitude": "-96.8169",
    "alt": "1648",
    "timezone": "-6",
    "dst": "A",
    "continent": "North America"
  },
  {
    "name": "Brown Field Municipal Airport",
    "city": "San Diego",
    "country": "United States",
    "country_code": "US",
    "iata": "SDM",
    "icao": "KSDM",
    "lat": "32.5722722",
    "longitude": "-116.9801611",
    "alt": "526",
    "timezone": "-7",
    "dst": "A",
    "continent": "North America"
  },
  {
    "name": "Brownsville South Padre Island Intl",
    "city": "Brownsville",
    "country": "United States",
    "country_code": "US",
    "iata": "BRO",
    "icao": "KBRO",
    "lat": "25.906833",
    "longitude": "-97.425861",
    "alt": "22",
    "timezone": "-6",
    "dst": "A",
    "continent": "North America"
  },
  {
    "name": "Brunswick Golden Isles Airport",
    "city": "Brunswick",
    "country": "United States",
    "country_code": "US",
    "iata": "BQK",
    "icao": "KBQK",
    "lat": "31.2588",
    "longitude": "-81.4665",
    "alt": "26",
    "timezone": "-5",
    "dst": "A",
    "continent": "North America"
  },
  {
    "name": "Bryant Ahp",
    "city": "Fort Richardson",
    "country": "United States",
    "country_code": "US",
    "iata": "FRN",
    "icao": "PAFR",
    "lat": "61.266381",
    "longitude": "-149.653119",
    "alt": "378",
    "timezone": "-9",
    "dst": "A",
    "continent": "North America"
  },
  {
    "name": "Bryce Canyon",
    "city": "Bryce Canyon",
    "country": "United States",
    "country_code": "US",
    "iata": "BCE",
    "icao": "KBCE",
    "lat": "37.706444",
    "longitude": "-112.145806",
    "alt": "7590",
    "timezone": "-7",
    "dst": "A",
    "continent": "North America"
  },
  {
    "name": "Buchanan Field Airport",
    "city": "Concord",
    "country": "United States",
    "country_code": "US",
    "iata": "CCR",
    "icao": "KCCR",
    "lat": "37.9896667",
    "longitude": "-122.0568889",
    "alt": "26",
    "timezone": "-8",
    "dst": "A",
    "continent": "North America"
  },
  {
    "name": "Buckeye Municipal Airport",
    "city": "Buckeye",
    "country": "United States",
    "country_code": "US",
    "iata": "BXK",
    "icao": "KBXK",
    "lat": "33.420417",
    "longitude": "-112.68618",
    "alt": "1033",
    "timezone": "-7",
    "dst": "U",
    "continent": "North America"
  },
  {
    "name": "Buckland Airport",
    "city": "Buckland",
    "country": "United States",
    "country_code": "US",
    "iata": "BKC",
    "icao": "PABL",
    "lat": "65.981667",
    "longitude": "-161.149167",
    "alt": "31",
    "timezone": "-9",
    "dst": "A",
    "continent": "North America"
  },
  {
    "name": "Buckley Afb",
    "city": "Buckley",
    "country": "United States",
    "country_code": "US",
    "iata": "BKF",
    "icao": "KBKF",
    "lat": "39.701668",
    "longitude": "-104.75166",
    "alt": "5662",
    "timezone": "-7",
    "dst": "A",
    "continent": "North America"
  },
  {
    "name": "Buffalo Niagara Intl",
    "city": "Buffalo",
    "country": "United States",
    "country_code": "US",
    "iata": "BUF",
    "icao": "KBUF",
    "lat": "42.940525",
    "longitude": "-78.732167",
    "alt": "724",
    "timezone": "-5",
    "dst": "A",
    "continent": "North America"
  },
  {
    "name": "Burlington Intl",
    "city": "Burlington",
    "country": "United States",
    "country_code": "US",
    "iata": "BTV",
    "icao": "KBTV",
    "lat": "44.471861",
    "longitude": "-73.153278",
    "alt": "335",
    "timezone": "-5",
    "dst": "A",
    "continent": "North America"
  },
  {
    "name": "Burlington-Alamance Regional Airport",
    "city": "Burlington",
    "country": "United States",
    "country_code": "US",
    "iata": "BUY",
    "icao": "KBUY",
    "lat": "36.0485433",
    "longitude": "-79.4748892",
    "alt": "617",
    "timezone": "-4",
    "dst": "A",
    "continent": "North America"
  },
  {
    "name": "Butts Aaf",
    "city": "Fort Carson",
    "country": "United States",
    "country_code": "US",
    "iata": "FCS",
    "icao": "KFCS",
    "lat": "38.678394",
    "longitude": "-104.756581",
    "alt": "5838",
    "timezone": "-7",
    "dst": "A",
    "continent": "North America"
  },
  {
    "name": "Cairo-Grady County Airport",
    "city": "Cairo",
    "country": "United States",
    "country_code": "US",
    "iata": "70J",
    "icao": "N",
    "lat": "30.8879767",
    "longitude": "-84.1547353",
    "alt": "265",
    "timezone": "-5",
    "dst": "A",
    "continent": "North America"
  },
  {
    "name": "Caldwell Essex County Airport",
    "city": "Caldwell",
    "country": "United States",
    "country_code": "US",
    "iata": "CDW",
    "icao": "KCDW",
    "lat": "40.8752222",
    "longitude": "-74.2813611",
    "alt": "172",
    "timezone": "-4",
    "dst": "A",
    "continent": "North America"
  },
  {
    "name": "Calexico Intl",
    "city": "Calexico",
    "country": "United States",
    "country_code": "US",
    "iata": "CXL",
    "icao": "KCXL",
    "lat": "32.669502",
    "longitude": "-115.51333",
    "alt": "4",
    "timezone": "-8",
    "dst": "A",
    "continent": "North America"
  },
  {
    "name": "Cambridge Municipal Airport",
    "city": "Cambridge",
    "country": "United States",
    "country_code": "US",
    "iata": "CDI",
    "icao": "N",
    "lat": "39.9750278",
    "longitude": "-81.5775833",
    "alt": "799",
    "timezone": "-5",
    "dst": "U",
    "continent": "North America"
  },
  {
    "name": "Camp Mabry Austin City",
    "city": "Austin TX",
    "country": "United States",
    "country_code": "US",
    "iata": "ATT",
    "icao": "KATT",
    "lat": "30.31666",
    "longitude": "-97.7666",
    "alt": "0",
    "timezone": "-6",
    "dst": "A",
    "continent": "North America"
  },
  {
    "name": "Campbell Aaf",
    "city": "Hopkinsville",
    "country": "United States",
    "country_code": "US",
    "iata": "HOP",
    "icao": "KHOP",
    "lat": "36.668567",
    "longitude": "-87.496183",
    "alt": "573",
    "timezone": "-6",
    "dst": "A",
    "continent": "North America"
  },
  {
    "name": "Cannon Afb",
    "city": "Clovis",
    "country": "United States",
    "country_code": "US",
    "iata": "CVS",
    "icao": "KCVS",
    "lat": "34.382775",
    "longitude": "-103.322147",
    "alt": "4295",
    "timezone": "-7",
    "dst": "A",
    "continent": "North America"
  },
  {
    "name": "Canyonlands Field",
    "city": "Moab",
    "country": "United States",
    "country_code": "US",
    "iata": "CNY",
    "icao": "KCNY",
    "lat": "38.755",
    "longitude": "-109.754722",
    "alt": "4555",
    "timezone": "-7",
    "dst": "A",
    "continent": "North America"
  },
  {
    "name": "Cape Girardeau Regional Airport",
    "city": "Cape Girardeau",
    "country": "United States",
    "country_code": "US",
    "iata": "CGI",
    "icao": "KCGI",
    "lat": "37.2253",
    "longitude": "-89.5708",
    "alt": "342",
    "timezone": "-6",
    "dst": "A",
    "continent": "North America"
  },
  {
    "name": "Cape Lisburne Lrrs",
    "city": "Cape Lisburne",
    "country": "United States",
    "country_code": "US",
    "iata": "LUR",
    "icao": "PALU",
    "lat": "68.875133",
    "longitude": "-166.110022",
    "alt": "12",
    "timezone": "-9",
    "dst": "A",
    "continent": "North America"
  },
  {
    "name": "Cape May Co",
    "city": "Wildwood",
    "country": "United States",
    "country_code": "US",
    "iata": "WWD",
    "icao": "KWWD",
    "lat": "39.008507",
    "longitude": "-74.908275",
    "alt": "23",
    "timezone": "-5",
    "dst": "A",
    "continent": "North America"
  },
  {
    "name": "Cape Newenham Lrrs",
    "city": "Cape Newenham",
    "country": "United States",
    "country_code": "US",
    "iata": "EHM",
    "icao": "PAEH",
    "lat": "58.646428",
    "longitude": "-162.062778",
    "alt": "541",
    "timezone": "-9",
    "dst": "A",
    "continent": "North America"
  },
  {
    "name": "Cape Romanzof Lrrs",
    "city": "Cape Romanzof",
    "country": "United States",
    "country_code": "US",
    "iata": "CZF",
    "icao": "PACZ",
    "lat": "61.780297",
    "longitude": "-166.038747",
    "alt": "457",
    "timezone": "-9",
    "dst": "A",
    "continent": "North America"
  },
  {
    "name": "Capital City",
    "city": "Lansing",
    "country": "United States",
    "country_code": "US",
    "iata": "LAN",
    "icao": "KLAN",
    "lat": "42.7787",
    "longitude": "-84.587357",
    "alt": "861",
    "timezone": "-5",
    "dst": "A",
    "continent": "North America"
  },
  {
    "name": "Capital City Airport",
    "city": "Harrisburg",
    "country": "United States",
    "country_code": "US",
    "iata": "CXY",
    "icao": "KCXY",
    "lat": "40.2171389",
    "longitude": "-76.8513611",
    "alt": "347",
    "timezone": "-4",
    "dst": "A",
    "continent": "North America"
  },
  {
    "name": "Carbon County Regional-Buck Davis Field",
    "city": "Price",
    "country": "United States",
    "country_code": "US",
    "iata": "PUC",
    "icao": "KPUC",
    "lat": "39.609722",
    "longitude": "-110.75278",
    "alt": "5957",
    "timezone": "-6",
    "dst": "A",
    "continent": "North America"
  },
  {
    "name": "Caribou Muni",
    "city": "Caribou",
    "country": "United States",
    "country_code": "US",
    "iata": "CAR",
    "icao": "KCAR",
    "lat": "46.8715",
    "longitude": "-68.017917",
    "alt": "626",
    "timezone": "-4",
    "dst": "A",
    "continent": "North America"
  },
  {
    "name": "Cartersville Airport",
    "city": "Cartersville",
    "country": "United States",
    "country_code": "US",
    "iata": "VPC",
    "icao": "KVPC",
    "lat": "34.1231475",
    "longitude": "-84.8487067",
    "alt": "759",
    "timezone": "-4",
    "dst": "A",
    "continent": "North America"
  },
  {
    "name": "Casa Grande Municipal Airport",
    "city": "Casa Grande",
    "country": "United States",
    "country_code": "US",
    "iata": "CGZ",
    "icao": "KCGZ",
    "lat": "32.954889",
    "longitude": "-111.766832",
    "alt": "1464",
    "timezone": "-7",
    "dst": "U",
    "continent": "North America"
  },
  {
    "name": "Castle",
    "city": "Merced",
    "country": "United States",
    "country_code": "US",
    "iata": "MER",
    "icao": "KMER",
    "lat": "37.380481",
    "longitude": "-120.568189",
    "alt": "189",
    "timezone": "-8",
    "dst": "A",
    "continent": "North America"
  },
  {
    "name": "Cavern City Air Terminal",
    "city": "Carlsbad",
    "country": "United States",
    "country_code": "US",
    "iata": "CNM",
    "icao": "KCNM",
    "lat": "32.337472",
    "longitude": "-104.263278",
    "alt": "3295",
    "timezone": "-7",
    "dst": "A",
    "continent": "North America"
  },
  {
    "name": "Cecil Field",
    "city": "Jacksonville",
    "country": "United States",
    "country_code": "US",
    "iata": "NZC",
    "icao": "KVQQ",
    "lat": "30.2187",
    "longitude": "-81.8767",
    "alt": "81",
    "timezone": "-5",
    "dst": "A",
    "continent": "North America"
  },
  {
    "name": "Cedar City Rgnl",
    "city": "Cedar City",
    "country": "United States",
    "country_code": "US",
    "iata": "CDC",
    "icao": "KCDC",
    "lat": "37.700967",
    "longitude": "-113.098847",
    "alt": "5622",
    "timezone": "-7",
    "dst": "A",
    "continent": "North America"
  },
  {
    "name": "Cedar Rapids",
    "city": "Cedar Rapids",
    "country": "United States",
    "country_code": "US",
    "iata": "CID",
    "icao": "KCID",
    "lat": "41.884694",
    "longitude": "-91.710806",
    "alt": "869",
    "timezone": "-6",
    "dst": "A",
    "continent": "North America"
  },
  {
    "name": "Centennial",
    "city": "Denver",
    "country": "United States",
    "country_code": "US",
    "iata": "APA",
    "icao": "KAPA",
    "lat": "39.570129",
    "longitude": "-104.849294",
    "alt": "5883",
    "timezone": "-7",
    "dst": "A",
    "continent": "North America"
  },
  {
    "name": "Central Airport",
    "city": "Central",
    "country": "United States",
    "country_code": "US",
    "iata": "CEM",
    "icao": "PACE",
    "lat": "65.573889",
    "longitude": "-144.780833",
    "alt": "937",
    "timezone": "-9",
    "dst": "A",
    "continent": "North America"
  },
  {
    "name": "Central Illinois Rgnl",
    "city": "Bloomington",
    "country": "United States",
    "country_code": "US",
    "iata": "BMI",
    "icao": "KBMI",
    "lat": "40.477111",
    "longitude": "-88.915917",
    "alt": "871",
    "timezone": "-6",
    "dst": "A",
    "continent": "North America"
  },
  {
    "name": "Central Nebraska Regional Airport",
    "city": "Grand Island",
    "country": "United States",
    "country_code": "US",
    "iata": "GRI",
    "icao": "KGRI",
    "lat": "40.9675",
    "longitude": "-98.3096",
    "alt": "1847",
    "timezone": "-6",
    "dst": "A",
    "continent": "North America"
  },
  {
    "name": "Central Wisconsin",
    "city": "Wassau",
    "country": "United States",
    "country_code": "US",
    "iata": "CWA",
    "icao": "KCWA",
    "lat": "44.772726",
    "longitude": "-89.646635",
    "alt": "840",
    "timezone": "-6",
    "dst": "A",
    "continent": "North America"
  },
  {
    "name": "Centre-Piedmont-Cherokee County Regional Airport",
    "city": "Centre",
    "country": "United States",
    "country_code": "US",
    "iata": "PYP",
    "icao": "KPYP",
    "lat": "34.0899167",
    "longitude": "-85.6100833",
    "alt": "595",
    "timezone": "-4",
    "dst": "A",
    "continent": "North America"
  },
  {
    "name": "Chadron Municipal Airport",
    "city": "Chadron",
    "country": "United States",
    "country_code": "US",
    "iata": "CDR",
    "icao": "KCDR",
    "lat": "42.8375",
    "longitude": "-103.095556",
    "alt": "3297",
    "timezone": "-7",
    "dst": "A",
    "continent": "North America"
  },
  {
    "name": "Chalkyitsik Airport",
    "city": "Chalkyitsik",
    "country": "United States",
    "country_code": "US",
    "iata": "CIK",
    "icao": "PACI",
    "lat": "66.645",
    "longitude": "-143.74",
    "alt": "544",
    "timezone": "-9",
    "dst": "A",
    "continent": "North America"
  },
  {
    "name": "Champaign",
    "city": "Champaign",
    "country": "United States",
    "country_code": "US",
    "iata": "CMI",
    "icao": "KCMI",
    "lat": "40.03925",
    "longitude": "-88.278056",
    "alt": "754",
    "timezone": "-6",
    "dst": "A",
    "continent": "North America"
  },
  {
    "name": "Charles M Schulz Sonoma Co",
    "city": "Santa Rosa",
    "country": "United States",
    "country_code": "US",
    "iata": "STS",
    "icao": "KSTS",
    "lat": "38.508978",
    "longitude": "-122.81288",
    "alt": "125",
    "timezone": "-8",
    "dst": "A",
    "continent": "North America"
  },
  {
    "name": "Charleston Afb Intl",
    "city": "Charleston",
    "country": "United States",
    "country_code": "US",
    "iata": "CHS",
    "icao": "KCHS",
    "lat": "32.898647",
    "longitude": "-80.040528",
    "alt": "45",
    "timezone": "-5",
    "dst": "A",
    "continent": "North America"
  },
  {
    "name": "Charlevoix Municipal Airport",
    "city": "Charelvoix",
    "country": "United States",
    "country_code": "US",
    "iata": "CVX",
    "icao": "KCVX",
    "lat": "45.3047778",
    "longitude": "-85.2753333",
    "alt": "669",
    "timezone": "-5",
    "dst": "A",
    "continent": "North America"
  },
  {
    "name": "Charlotte County-Punta Gorda Airport",
    "city": "Punta Gorda",
    "country": "United States",
    "country_code": "US",
    "iata": "PGD",
    "icao": "KPGD",
    "lat": "26.919722",
    "longitude": "-81.990556",
    "alt": "26",
    "timezone": "-5",
    "dst": "A",
    "continent": "North America"
  },
  {
    "name": "Charlotte Douglas Intl",
    "city": "Charlotte",
    "country": "United States",
    "country_code": "US",
    "iata": "CLT",
    "icao": "KCLT",
    "lat": "35.214",
    "longitude": "-80.943139",
    "alt": "748",
    "timezone": "-5",
    "dst": "A",
    "continent": "North America"
  },
  {
    "name": "Charlottesville-Albemarle",
    "city": "Charlottesville VA",
    "country": "United States",
    "country_code": "US",
    "iata": "CHO",
    "icao": "KCHO",
    "lat": "38.138639",
    "longitude": "-78.452861",
    "alt": "639",
    "timezone": "-5",
    "dst": "A",
    "continent": "North America"
  },
  {
    "name": "Chatham Seaplane Base",
    "city": "Sitka",
    "country": "United States",
    "country_code": "US",
    "iata": "CYM",
    "icao": "N",
    "lat": "57.515",
    "longitude": "-134.946111",
    "alt": "0",
    "timezone": "-9",
    "dst": "A",
    "continent": "North America"
  },
  {
    "name": "Chautauqua County-Jamestown",
    "city": "Jamestown",
    "country": "United States",
    "country_code": "US",
    "iata": "JHW",
    "icao": "KJHW",
    "lat": "42.153333",
    "longitude": "-79.258056",
    "alt": "525",
    "timezone": "-5",
    "dst": "A",
    "continent": "North America"
  },
  {
    "name": "Chefornak Airport",
    "city": "Chefornak",
    "country": "United States",
    "country_code": "US",
    "iata": "CYF",
    "icao": "PACK",
    "lat": "60.149167",
    "longitude": "-164.285556",
    "alt": "40",
    "timezone": "-9",
    "dst": "A",
    "continent": "North America"
  },
  {
    "name": "Chenega Bay Airport",
    "city": "Chenega",
    "country": "United States",
    "country_code": "US",
    "iata": "NCN",
    "icao": "PFCB",
    "lat": "60.077222",
    "longitude": "-147.991944",
    "alt": "72",
    "timezone": "-9",
    "dst": "A",
    "continent": "North America"
  },
  {
    "name": "Cherokee County Airport",
    "city": "Canton",
    "country": "United States",
    "country_code": "US",
    "iata": "CNI",
    "icao": "KCNI",
    "lat": "34.3122175",
    "longitude": "-84.4221556",
    "alt": "1219",
    "timezone": "-4",
    "dst": "A",
    "continent": "North America"
  },
  {
    "name": "Cherry Capital Airport",
    "city": "Traverse City",
    "country": "United States",
    "country_code": "US",
    "iata": "TVC",
    "icao": "KTVC",
    "lat": "44.741445",
    "longitude": "-85.582235",
    "alt": "624",
    "timezone": "-5",
    "dst": "A",
    "continent": "North America"
  },
  {
    "name": "Cherry Point Mcas",
    "city": "Cherry Point",
    "country": "United States",
    "country_code": "US",
    "iata": "NKT",
    "icao": "KNKT",
    "lat": "34.900872",
    "longitude": "-76.880733",
    "alt": "29",
    "timezone": "-5",
    "dst": "A",
    "continent": "North America"
  },
  {
    "name": "Chevak Airport",
    "city": "Chevak",
    "country": "United States",
    "country_code": "US",
    "iata": "VAK",
    "icao": "PAVA",
    "lat": "61.5338",
    "longitude": "-165.584",
    "alt": "75",
    "timezone": "-9",
    "dst": "A",
    "continent": "North America"
  },
  {
    "name": "Cheyenne Rgnl Jerry Olson Fld",
    "city": "Cheyenne",
    "country": "United States",
    "country_code": "US",
    "iata": "CYS",
    "icao": "KCYS",
    "lat": "41.155722",
    "longitude": "-104.811839",
    "alt": "6156",
    "timezone": "-7",
    "dst": "A",
    "continent": "North America"
  },
  {
    "name": "Chicago Executive",
    "city": "Chicago-Wheeling",
    "country": "United States",
    "country_code": "US",
    "iata": "PWK",
    "icao": "KPWK",
    "lat": "42.1142897",
    "longitude": "-87.9015376",
    "alt": "647",
    "timezone": "-6",
    "dst": "A",
    "continent": "North America"
  },
  {
    "name": "Chicago Midway Intl",
    "city": "Chicago",
    "country": "United States",
    "country_code": "US",
    "iata": "MDW",
    "icao": "KMDW",
    "lat": "41.785972",
    "longitude": "-87.752417",
    "alt": "620",
    "timezone": "-6",
    "dst": "A",
    "continent": "North America"
  },
  {
    "name": "Chicago Ohare Intl",
    "city": "Chicago",
    "country": "United States",
    "country_code": "US",
    "iata": "ORD",
    "icao": "KORD",
    "lat": "41.978603",
    "longitude": "-87.904842",
    "alt": "668",
    "timezone": "-6",
    "dst": "A",
    "continent": "North America"
  },
  {
    "name": "Chicago Rockford International Airport ",
    "city": "Rockford",
    "country": "United States",
    "country_code": "US",
    "iata": "RFD",
    "icao": "KRFD",
    "lat": "42.1953611",
    "longitude": "-89.0972222",
    "alt": "742",
    "timezone": "-6",
    "dst": "A",
    "continent": "North America"
  },
  {
    "name": "Chico Muni",
    "city": "Chico",
    "country": "United States",
    "country_code": "US",
    "iata": "CIC",
    "icao": "KCIC",
    "lat": "39.795383",
    "longitude": "-121.858422",
    "alt": "238",
    "timezone": "-8",
    "dst": "A",
    "continent": "North America"
  },
  {
    "name": "Chignik Bay Seaplane Base",
    "city": "Chignik",
    "country": "United States",
    "country_code": "US",
    "iata": "KBW",
    "icao": "N",
    "lat": "56.295556",
    "longitude": "-158.401398",
    "alt": "0",
    "timezone": "-9",
    "dst": "A",
    "continent": "North America"
  },
  {
    "name": "Chignik Lagoon Airport",
    "city": "Chignik Lagoon",
    "country": "United States",
    "country_code": "US",
    "iata": "KCL",
    "icao": "N",
    "lat": "56.311111",
    "longitude": "-158.534167",
    "alt": "25",
    "timezone": "-9",
    "dst": "A",
    "continent": "North America"
  },
  {
    "name": "Chignik Lake Airport",
    "city": "Chignik Lake",
    "country": "United States",
    "country_code": "US",
    "iata": "KCQ",
    "icao": "N",
    "lat": "56.255",
    "longitude": "-158.775278",
    "alt": "50",
    "timezone": "-9",
    "dst": "A",
    "continent": "North America"
  },
  {
    "name": "Childress Muni",
    "city": "Childress",
    "country": "United States",
    "country_code": "US",
    "iata": "CDS",
    "icao": "KCDS",
    "lat": "34.433781",
    "longitude": "-100.287992",
    "alt": "1954",
    "timezone": "-6",
    "dst": "A",
    "continent": "North America"
  },
  {
    "name": "China Lake Naws",
    "city": "China",
    "country": "United States",
    "country_code": "US",
    "iata": "NID",
    "icao": "KNID",
    "lat": "35.685422",
    "longitude": "-117.692039",
    "alt": "2283",
    "timezone": "-8",
    "dst": "A",
    "continent": "North America"
  },
  {
    "name": "Chinle Municipal Airport",
    "city": "Chinle",
    "country": "United States",
    "country_code": "US",
    "iata": "E91",
    "icao": "N",
    "lat": "36.1108806",
    "longitude": "-109.5754222",
    "alt": "5547",
    "timezone": "-7",
    "dst": "N",
    "continent": "North America"
  },
  {
    "name": "Chippewa County International Airport",
    "city": "Sault Ste Marie",
    "country": "United States",
    "country_code": "US",
    "iata": "CIU",
    "icao": "KCIU",
    "lat": "46.2508",
    "longitude": "-84.4724",
    "alt": "800",
    "timezone": "-5",
    "dst": "A",
    "continent": "North America"
  },
  {
    "name": "Chippewa Valley Regional Airport",
    "city": "Eau Claire",
    "country": "United States",
    "country_code": "US",
    "iata": "EAU",
    "icao": "KEAU",
    "lat": "44.8658",
    "longitude": "-91.4843",
    "alt": "913",
    "timezone": "-6",
    "dst": "A",
    "continent": "North America"
  },
  {
    "name": "Chisana Airport",
    "city": "Chisana",
    "country": "United States",
    "country_code": "US",
    "iata": "CZN",
    "icao": "N",
    "lat": "62.071111",
    "longitude": "-142.048333",
    "alt": "1011",
    "timezone": "-9",
    "dst": "A",
    "continent": "North America"
  },
  {
    "name": "Chisholm Hibbing",
    "city": "Hibbing",
    "country": "United States",
    "country_code": "US",
    "iata": "HIB",
    "icao": "KHIB",
    "lat": "47.3866",
    "longitude": "-92.838994",
    "alt": "1353",
    "timezone": "-6",
    "dst": "A",
    "continent": "North America"
  },
  {
    "name": "Chuathbaluk Airport",
    "city": "Chuathbaluk",
    "country": "United States",
    "country_code": "US",
    "iata": "CHU",
    "icao": "PACH",
    "lat": "61.579167",
    "longitude": "-159.215556",
    "alt": "243",
    "timezone": "-9",
    "dst": "A",
    "continent": "North America"
  },
  {
    "name": "Cincinnati Muni Lunken Fld",
    "city": "Cincinnati",
    "country": "United States",
    "country_code": "US",
    "iata": "LUK",
    "icao": "KLUK",
    "lat": "39.103333",
    "longitude": "-84.418611",
    "alt": "483",
    "timezone": "-5",
    "dst": "A",
    "continent": "North America"
  },
  {
    "name": "Cincinnati Northern Kentucky Intl",
    "city": "Cincinnati",
    "country": "United States",
    "country_code": "US",
    "iata": "CVG",
    "icao": "KCVG",
    "lat": "39.048836",
    "longitude": "-84.667822",
    "alt": "896",
    "timezone": "-5",
    "dst": "A",
    "continent": "North America"
  },
  {
    "name": "Circle City Airport",
    "city": "Circle",
    "country": "United States",
    "country_code": "US",
    "iata": "IRC",
    "icao": "PACR",
    "lat": "65.827778",
    "longitude": "-144.076111",
    "alt": "613",
    "timezone": "-9",
    "dst": "A",
    "continent": "North America"
  },
  {
    "name": "City Of Colorado Springs Muni",
    "city": "Colorado Springs",
    "country": "United States",
    "country_code": "US",
    "iata": "COS",
    "icao": "KCOS",
    "lat": "38.805805",
    "longitude": "-104.700778",
    "alt": "6187",
    "timezone": "-7",
    "dst": "A",
    "continent": "North America"
  },
  {
    "name": "Clear",
    "city": "Clear Mews",
    "country": "United States",
    "country_code": "US",
    "iata": "Z84",
    "icao": "PACL",
    "lat": "64.301203",
    "longitude": "-149.120144",
    "alt": "552",
    "timezone": "-9",
    "dst": "A",
    "continent": "North America"
  },
  {
    "name": "Cleveland Hopkins Intl",
    "city": "Cleveland",
    "country": "United States",
    "country_code": "US",
    "iata": "CLE",
    "icao": "KCLE",
    "lat": "41.411689",
    "longitude": "-81.849794",
    "alt": "791",
    "timezone": "-5",
    "dst": "A",
    "continent": "North America"
  },
  {
    "name": "Clovis Muni",
    "city": "Clovis",
    "country": "United States",
    "country_code": "US",
    "iata": "CVN",
    "icao": "KCVN",
    "lat": "34.425139",
    "longitude": "-103.079278",
    "alt": "4216",
    "timezone": "-6",
    "dst": "A",
    "continent": "North America"
  },
  {
    "name": "Clow International Airport",
    "city": "Bolingbrook",
    "country": "United States",
    "country_code": "US",
    "iata": "1CS",
    "icao": "N",
    "lat": "41.6959744",
    "longitude": "-88.1292306",
    "alt": "670",
    "timezone": "-6",
    "dst": "U",
    "continent": "North America"
  },
  {
    "name": "Cobb County Airport-Mc Collum Field",
    "city": "Atlanta",
    "country": "United States",
    "country_code": "US",
    "iata": "RYY",
    "icao": "KRYY",
    "lat": "34.0131569",
    "longitude": "-84.5970556",
    "alt": "1041",
    "timezone": "-5",
    "dst": "A",
    "continent": "North America"
  },
  {
    "name": "Coffman Cove Seaplane Base",
    "city": "Coffman Cove",
    "country": "United States",
    "country_code": "US",
    "iata": "KCC",
    "icao": "N",
    "lat": "56.014722",
    "longitude": "-132.833889",
    "alt": "0",
    "timezone": "-9",
    "dst": "A",
    "continent": "North America"
  },
  {
    "name": "Cold Bay",
    "city": "Cold Bay",
    "country": "United States",
    "country_code": "US",
    "iata": "CDB",
    "icao": "PACD",
    "lat": "55.206061",
    "longitude": "-162.725436",
    "alt": "96",
    "timezone": "-9",
    "dst": "A",
    "continent": "North America"
  },
  {
    "name": "Coldfoot Airport",
    "city": "Coldfoot",
    "country": "United States",
    "country_code": "US",
    "iata": "CXF",
    "icao": "N",
    "lat": "67.251389",
    "longitude": "-150.176111",
    "alt": "1014",
    "timezone": "-9",
    "dst": "A",
    "continent": "North America"
  },
  {
    "name": "Coleman A Young Muni",
    "city": "Detroit",
    "country": "United States",
    "country_code": "US",
    "iata": "DET",
    "icao": "KDET",
    "lat": "42.409195",
    "longitude": "-83.009861",
    "alt": "626",
    "timezone": "-5",
    "dst": "A",
    "continent": "North America"
  },
  {
    "name": "Collin County Regional Airport at Mc Kinney",
    "city": "DALLAS",
    "country": "United States",
    "country_code": "US",
    "iata": "TKI",
    "icao": "KTKI",
    "lat": "33.1779444",
    "longitude": "-96.5905278",
    "alt": "585",
    "timezone": "-6",
    "dst": "A",
    "continent": "North America"
  },
  {
    "name": "Columbia County",
    "city": "Hudson NY",
    "country": "United States",
    "country_code": "US",
    "iata": "HCC",
    "icao": "N",
    "lat": "42.2913",
    "longitude": "-73.7103",
    "alt": "198",
    "timezone": "-4",
    "dst": "A",
    "continent": "North America"
  },
  {
    "name": "Columbia Metropolitan",
    "city": "Colombia",
    "country": "United States",
    "country_code": "US",
    "iata": "CAE",
    "icao": "KCAE",
    "lat": "33.938833",
    "longitude": "-81.119528",
    "alt": "236",
    "timezone": "-5",
    "dst": "A",
    "continent": "North America"
  },
  {
    "name": "Columbia Rgnl",
    "city": "Columbia",
    "country": "United States",
    "country_code": "US",
    "iata": "COU",
    "icao": "KCOU",
    "lat": "38.818094",
    "longitude": "-92.219631",
    "alt": "889",
    "timezone": "-6",
    "dst": "A",
    "continent": "North America"
  },
  {
    "name": "Columbus Afb",
    "city": "Colombus",
    "country": "United States",
    "country_code": "US",
    "iata": "CBM",
    "icao": "KCBM",
    "lat": "33.643833",
    "longitude": "-88.443833",
    "alt": "219",
    "timezone": "-6",
    "dst": "A",
    "continent": "North America"
  },
  {
    "name": "Columbus Metropolitan Airport",
    "city": "Columbus",
    "country": "United States",
    "country_code": "US",
    "iata": "CSG",
    "icao": "KCSG",
    "lat": "32.5163333",
    "longitude": "-84.9388611",
    "alt": "397",
    "timezone": "-5",
    "dst": "A",
    "continent": "North America"
  },
  {
    "name": "Concord Municipal",
    "city": "Concord NH",
    "country": "United States",
    "country_code": "US",
    "iata": "CON",
    "icao": "N",
    "lat": "43.20267",
    "longitude": "-71.50233",
    "alt": "342",
    "timezone": "-5",
    "dst": "A",
    "continent": "North America"
  },
  {
    "name": "Condron Aaf",
    "city": "White Sands",
    "country": "United States",
    "country_code": "US",
    "iata": "WSD",
    "icao": "KWSD",
    "lat": "32.341484",
    "longitude": "-106.40277",
    "alt": "3934",
    "timezone": "-7",
    "dst": "A",
    "continent": "North America"
  },
  {
    "name": "Corpus Christi Intl",
    "city": "Corpus Christi",
    "country": "United States",
    "country_code": "US",
    "iata": "CRP",
    "icao": "KCRP",
    "lat": "27.770361",
    "longitude": "-97.501222",
    "alt": "44",
    "timezone": "-6",
    "dst": "A",
    "continent": "North America"
  },
  {
    "name": "Corpus Christi NAS",
    "city": "Corpus Christi",
    "country": "United States",
    "country_code": "US",
    "iata": "NGP",
    "icao": "KNGP",
    "lat": "27.692701",
    "longitude": "-97.290376",
    "alt": "18",
    "timezone": "-6",
    "dst": "A",
    "continent": "North America"
  },
  {
    "name": "Cortez Muni",
    "city": "Cortez",
    "country": "United States",
    "country_code": "US",
    "iata": "CEZ",
    "icao": "KCEZ",
    "lat": "37.303",
    "longitude": "-108.628056",
    "alt": "5918",
    "timezone": "-7",
    "dst": "A",
    "continent": "North America"
  },
  {
    "name": "Cotulla Lasalle Co",
    "city": "Cotulla",
    "country": "United States",
    "country_code": "US",
    "iata": "COT",
    "icao": "KCOT",
    "lat": "28.456694",
    "longitude": "-99.220294",
    "alt": "474",
    "timezone": "-6",
    "dst": "A",
    "continent": "North America"
  },
  {
    "name": "Coulter Fld",
    "city": "Bryan",
    "country": "United States",
    "country_code": "US",
    "iata": "CFD",
    "icao": "KCFD",
    "lat": "30.715694",
    "longitude": "-96.331361",
    "alt": "367",
    "timezone": "-6",
    "dst": "A",
    "continent": "North America"
  },
  {
    "name": "Council Airport",
    "city": "Council",
    "country": "United States",
    "country_code": "US",
    "iata": "CIL",
    "icao": "N",
    "lat": "64.897778",
    "longitude": "-163.703333",
    "alt": "85",
    "timezone": "-9",
    "dst": "A",
    "continent": "North America"
  },
  {
    "name": "Covington Municipal Airport",
    "city": "Covington",
    "country": "United States",
    "country_code": "US",
    "iata": "9A1",
    "icao": "N",
    "lat": "33.6323083",
    "longitude": "-83.8474472",
    "alt": "809",
    "timezone": "-4",
    "dst": "A",
    "continent": "North America"
  },
  {
    "name": "Craig Fld",
    "city": "Selma",
    "country": "United States",
    "country_code": "US",
    "iata": "SEM",
    "icao": "KSEM",
    "lat": "32.343947",
    "longitude": "-86.987803",
    "alt": "166",
    "timezone": "-6",
    "dst": "A",
    "continent": "North America"
  },
  {
    "name": "Craig Seaplane Base",
    "city": "Craig",
    "country": "United States",
    "country_code": "US",
    "iata": "CGA",
    "icao": "N",
    "lat": "55.478889",
    "longitude": "-133.147778",
    "alt": "0",
    "timezone": "-9",
    "dst": "A",
    "continent": "North America"
  },
  {
    "name": "Craven Co Rgnl",
    "city": "New Bern",
    "country": "United States",
    "country_code": "US",
    "iata": "EWN",
    "icao": "KEWN",
    "lat": "35.072972",
    "longitude": "-77.042944",
    "alt": "18",
    "timezone": "-5",
    "dst": "A",
    "continent": "North America"
  },
  {
    "name": "Creech Afb",
    "city": "Indian Springs",
    "country": "United States",
    "country_code": "US",
    "iata": "INS",
    "icao": "KINS",
    "lat": "36.587183",
    "longitude": "-115.673353",
    "alt": "3133",
    "timezone": "-8",
    "dst": "A",
    "continent": "North America"
  },
  {
    "name": "Crisp County Cordele Airport",
    "city": "Cordele",
    "country": "United States",
    "country_code": "US",
    "iata": "CKF",
    "icao": "KCKF",
    "lat": "31.9888333",
    "longitude": "-83.7739167",
    "alt": "310",
    "timezone": "-4",
    "dst": "A",
    "continent": "North America"
  },
  {
    "name": "Crooked Creek Airport",
    "city": "Crooked Creek",
    "country": "United States",
    "country_code": "US",
    "iata": "CKD",
    "icao": "N",
    "lat": "61.867778",
    "longitude": "-158.135",
    "alt": "178",
    "timezone": "-9",
    "dst": "A",
    "continent": "North America"
  },
  {
    "name": "Cut Bank Muni",
    "city": "Cutbank",
    "country": "United States",
    "country_code": "US",
    "iata": "CTB",
    "icao": "KCTB",
    "lat": "48.608353",
    "longitude": "-112.376144",
    "alt": "3854",
    "timezone": "-7",
    "dst": "A",
    "continent": "North America"
  },
  {
    "name": "Cuyahoga County",
    "city": "Richmond Heights",
    "country": "United States",
    "country_code": "US",
    "iata": "CGF",
    "icao": "KCGF",
    "lat": "41.565124",
    "longitude": "-81.4863555",
    "alt": "879",
    "timezone": "-5",
    "dst": "A",
    "continent": "North America"
  },
  {
    "name": "Dade Collier Training And Transition",
    "city": "Miami",
    "country": "United States",
    "country_code": "US",
    "iata": "TNT",
    "icao": "KTNT",
    "lat": "25.861806",
    "longitude": "-80.897",
    "alt": "13",
    "timezone": "-5",
    "dst": "A",
    "continent": "North America"
  },
  {
    "name": "Dalhart Muni",
    "city": "Dalhart",
    "country": "United States",
    "country_code": "US",
    "iata": "DHT",
    "icao": "KDHT",
    "lat": "36.022586",
    "longitude": "-102.547278",
    "alt": "3991",
    "timezone": "-6",
    "dst": "A",
    "continent": "North America"
  },
  {
    "name": "Dallas Executive Airport",
    "city": "Dallas",
    "country": "United States",
    "country_code": "US",
    "iata": "RBD",
    "icao": "KRBD",
    "lat": "32.680833",
    "longitude": "-96.868333",
    "alt": "201",
    "timezone": "-6",
    "dst": "A",
    "continent": "North America"
  },
  {
    "name": "Dallas Fort Worth Intl",
    "city": "Dallas Fort Worth",
    "country": "United States",
    "country_code": "US",
    "iata": "DFW",
    "icao": "KDFW",
    "lat": "32.896828",
    "longitude": "-97.037997",
    "alt": "607",
    "timezone": "-6",
    "dst": "A",
    "continent": "North America"
  },
  {
    "name": "Dallas Love Fld",
    "city": "Dallas",
    "country": "United States",
    "country_code": "US",
    "iata": "DAL",
    "icao": "KDAL",
    "lat": "32.847111",
    "longitude": "-96.851778",
    "alt": "487",
    "timezone": "-6",
    "dst": "A",
    "continent": "North America"
  },
  {
    "name": "Dalton Municipal Airport",
    "city": "Dalton",
    "country": "United States",
    "country_code": "US",
    "iata": "DNN",
    "icao": "KDNN",
    "lat": "34.7229444",
    "longitude": "-84.87025",
    "alt": "709",
    "timezone": "-4",
    "dst": "A",
    "continent": "North America"
  },
  {
    "name": "Danbury Municipal Airport",
    "city": "Danbury",
    "country": "United States",
    "country_code": "US",
    "iata": "DXR",
    "icao": "KDXR",
    "lat": "41.3715353",
    "longitude": "-73.4821906",
    "alt": "458",
    "timezone": "-4",
    "dst": "A",
    "continent": "North America"
  },
  {
    "name": "Dane Co Rgnl Truax Fld",
    "city": "Madison",
    "country": "United States",
    "country_code": "US",
    "iata": "MSN",
    "icao": "KMSN",
    "lat": "43.139858",
    "longitude": "-89.337514",
    "alt": "887",
    "timezone": "-6",
    "dst": "A",
    "continent": "North America"
  },
  {
    "name": "Daniel Field Airport",
    "city": "Augusta",
    "country": "United States",
    "country_code": "US",
    "iata": "DNL",
    "icao": "KDNL",
    "lat": "33.4665028",
    "longitude": "-82.0393808",
    "alt": "423",
    "timezone": "-4",
    "dst": "A",
    "continent": "North America"
  },
  {
    "name": "Darlington County Jetport",
    "city": "Darlington",
    "country": "United States",
    "country_code": "US",
    "iata": "UDG",
    "icao": "KUDG",
    "lat": "34.4493845",
    "longitude": "-79.8900608",
    "alt": "192",
    "timezone": "-4",
    "dst": "A",
    "continent": "North America"
  },
  {
    "name": "David Wayne Hooks Field",
    "city": "Houston",
    "country": "United States",
    "country_code": "US",
    "iata": "DWH",
    "icao": "KDWH",
    "lat": "30.063746",
    "longitude": "-95.554276",
    "alt": "152",
    "timezone": "-6",
    "dst": "A",
    "continent": "North America"
  },
  {
    "name": "Davis Fld",
    "city": "Muskogee",
    "country": "United States",
    "country_code": "US",
    "iata": "MKO",
    "icao": "KMKO",
    "lat": "35.656489",
    "longitude": "-95.366656",
    "alt": "612",
    "timezone": "-6",
    "dst": "A",
    "continent": "North America"
  },
  {
    "name": "Davis Monthan Afb",
    "city": "Tucson",
    "country": "United States",
    "country_code": "US",
    "iata": "DMA",
    "icao": "KDMA",
    "lat": "32.166467",
    "longitude": "-110.883144",
    "alt": "2704",
    "timezone": "-7",
    "dst": "A",
    "continent": "North America"
  },
  {
    "name": "Dawson Community Airport",
    "city": "Glendive",
    "country": "United States",
    "country_code": "US",
    "iata": "GDV",
    "icao": "KGDV",
    "lat": "47.138611",
    "longitude": "-104.807222",
    "alt": "749",
    "timezone": "-7",
    "dst": "A",
    "continent": "North America"
  },
  {
    "name": "Dayton-Wright Brothers Airport",
    "city": "Dayton",
    "country": "United States",
    "country_code": "US",
    "iata": "MGY",
    "icao": "KMGY",
    "lat": "39.5889722",
    "longitude": "-84.2248611",
    "alt": "957",
    "timezone": "-5",
    "dst": "U",
    "continent": "North America"
  },
  {
    "name": "Daytona Beach Intl",
    "city": "Daytona Beach",
    "country": "United States",
    "country_code": "US",
    "iata": "DAB",
    "icao": "KDAB",
    "lat": "29.179917",
    "longitude": "-81.058056",
    "alt": "34",
    "timezone": "-5",
    "dst": "A",
    "continent": "North America"
  },
  {
    "name": "De Kalb Taylor Municipal Airport",
    "city": "De Kalb",
    "country": "United States",
    "country_code": "US",
    "iata": "DKB",
    "icao": "N",
    "lat": "41.9338342",
    "longitude": "-88.7056864",
    "alt": "914",
    "timezone": "-6",
    "dst": "U",
    "continent": "North America"
  },
  {
    "name": "Deadhorse",
    "city": "Deadhorse",
    "country": "United States",
    "country_code": "US",
    "iata": "SCC",
    "icao": "PASC",
    "lat": "70.19475",
    "longitude": "-148.465167",
    "alt": "64",
    "timezone": "-9",
    "dst": "A",
    "continent": "North America"
  },
  {
    "name": "Decatur",
    "city": "Decatur",
    "country": "United States",
    "country_code": "US",
    "iata": "DEC",
    "icao": "KDEC",
    "lat": "39.834564",
    "longitude": "-88.865689",
    "alt": "682",
    "timezone": "-6",
    "dst": "A",
    "continent": "North America"
  },
  {
    "name": "Decatur County Industrial Air Park",
    "city": "Bainbridge",
    "country": "United States",
    "country_code": "US",
    "iata": "BGE",
    "icao": "KBGE",
    "lat": "30.9715981",
    "longitude": "-84.6369278",
    "alt": "141",
    "timezone": "-5",
    "dst": "A",
    "continent": "North America"
  },
  {
    "name": "Deer Valley Municipal Airport",
    "city": "Phoenix ",
    "country": "United States",
    "country_code": "US",
    "iata": "DVT",
    "icao": "KDVT",
    "lat": "33.4117",
    "longitude": "112.457",
    "alt": "1478",
    "timezone": "-7",
    "dst": "A",
    "continent": "North America"
  },
  {
    "name": "Deering Airport",
    "city": "Deering",
    "country": "United States",
    "country_code": "US",
    "iata": "DEE",
    "icao": "PADE",
    "lat": "66.0696",
    "longitude": "-162.766",
    "alt": "21",
    "timezone": "-9",
    "dst": "A",
    "continent": "North America"
  },
  {
    "name": "DeFuniak Springs Airport",
    "city": "DeFuniak Springs",
    "country": "United States",
    "country_code": "US",
    "iata": "54J",
    "icao": "N",
    "lat": "30.7311111",
    "longitude": "-86.1537778",
    "alt": "289",
    "timezone": "-5",
    "dst": "A",
    "continent": "North America"
  },
  {
    "name": "Dekalb-Peachtree Airport",
    "city": "Atlanta",
    "country": "United States",
    "country_code": "US",
    "iata": "PDK",
    "icao": "KPDK",
    "lat": "33.8756111",
    "longitude": "-84.3019722",
    "alt": "1003",
    "timezone": "-4",
    "dst": "A",
    "continent": "North America"
  },
  {
    "name": "Del Norte County Airport",
    "city": "Crescent City",
    "country": "United States",
    "country_code": "US",
    "iata": "CEC",
    "icao": "KCEC",
    "lat": "41.7802",
    "longitude": "-124.237",
    "alt": "57",
    "timezone": "-8",
    "dst": "A",
    "continent": "North America"
  },
  {
    "name": "Del Rio Intl",
    "city": "Del Rio",
    "country": "United States",
    "country_code": "US",
    "iata": "DRT",
    "icao": "KDRT",
    "lat": "29.374208",
    "longitude": "-100.927158",
    "alt": "1002",
    "timezone": "-6",
    "dst": "A",
    "continent": "North America"
  },
  {
    "name": "Delaware County Airport",
    "city": "Muncie",
    "country": "United States",
    "country_code": "US",
    "iata": "MIE",
    "icao": "N",
    "lat": "40.2424722",
    "longitude": "-85.39575",
    "alt": "937",
    "timezone": "-5",
    "dst": "U",
    "continent": "North America"
  },
  {
    "name": "Dell Flight Strip",
    "city": "Dell",
    "country": "United States",
    "country_code": "US",
    "iata": "4U9",
    "icao": "K4U9",
    "lat": "44.7357483",
    "longitude": "-112.7200133",
    "alt": "6007",
    "timezone": "-7",
    "dst": "A",
    "continent": "North America"
  },
  {
    "name": "Delta County Airport",
    "city": "Escanaba",
    "country": "United States",
    "country_code": "US",
    "iata": "ESC",
    "icao": "KESC",
    "lat": "45.722778",
    "longitude": "-87.093611",
    "alt": "609",
    "timezone": "-5",
    "dst": "A",
    "continent": "North America"
  },
  {
    "name": "Delta Municipal Airport",
    "city": "Delta",
    "country": "United States",
    "country_code": "US",
    "iata": "DTA",
    "icao": "KDTA",
    "lat": "39.3806386",
    "longitude": "-112.5077147",
    "alt": "4759",
    "timezone": "-6",
    "dst": "A",
    "continent": "North America"
  },
  {
    "name": "Denver Intl",
    "city": "Denver",
    "country": "United States",
    "country_code": "US",
    "iata": "DEN",
    "icao": "KDEN",
    "lat": "39.861656",
    "longitude": "-104.673178",
    "alt": "5431",
    "timezone": "-7",
    "dst": "A",
    "continent": "North America"
  },
  {
    "name": "Des Moines Intl",
    "city": "Des Moines",
    "country": "United States",
    "country_code": "US",
    "iata": "DSM",
    "icao": "KDSM",
    "lat": "41.533972",
    "longitude": "-93.663083",
    "alt": "958",
    "timezone": "-6",
    "dst": "A",
    "continent": "North America"
  },
  {
    "name": "Destin",
    "city": "Destin",
    "country": "United States",
    "country_code": "US",
    "iata": "DTS",
    "icao": "KDTS",
    "lat": "30.4000611",
    "longitude": "-86.4714772",
    "alt": "23",
    "timezone": "-5",
    "dst": "A",
    "continent": "North America"
  },
  {
    "name": "Detroit Metro Wayne Co",
    "city": "Detroit",
    "country": "United States",
    "country_code": "US",
    "iata": "DTW",
    "icao": "KDTW",
    "lat": "42.212444",
    "longitude": "-83.353389",
    "alt": "645",
    "timezone": "-5",
    "dst": "A",
    "continent": "North America"
  },
  {
    "name": "Devils Lake Regional Airport",
    "city": "Devils Lake",
    "country": "United States",
    "country_code": "US",
    "iata": "DVL",
    "icao": "KDVL",
    "lat": "48.114444",
    "longitude": "-98.908611",
    "alt": "1445",
    "timezone": "-6",
    "dst": "A",
    "continent": "North America"
  },
  {
    "name": "Dickinson Theodore Roosevelt Regional Airport",
    "city": "Dickinson",
    "country": "United States",
    "country_code": "US",
    "iata": "DIK",
    "icao": "KDIK",
    "lat": "46.7975",
    "longitude": "-102.801944",
    "alt": "2592",
    "timezone": "-5",
    "dst": "A",
    "continent": "North America"
  },
  {
    "name": "Dillingham",
    "city": "Dillingham",
    "country": "United States",
    "country_code": "US",
    "iata": "DLG",
    "icao": "PADL",
    "lat": "59.044667",
    "longitude": "-158.5055",
    "alt": "74",
    "timezone": "-9",
    "dst": "A",
    "continent": "North America"
  },
  {
    "name": "Dillingham",
    "city": "Dillingham",
    "country": "United States",
    "country_code": "US",
    "iata": "HDH",
    "icao": "PHDH",
    "lat": "21.579475",
    "longitude": "-158.197281",
    "alt": "14",
    "timezone": "-10",
    "dst": "A",
    "continent": "North America"
  },
  {
    "name": "Dobbins Arb",
    "city": "Marietta",
    "country": "United States",
    "country_code": "US",
    "iata": "MGE",
    "icao": "KMGE",
    "lat": "33.915382",
    "longitude": "-84.516319",
    "alt": "1068",
    "timezone": "-5",
    "dst": "A",
    "continent": "North America"
  },
  {
    "name": "Dodge City Regional Airport",
    "city": "Dodge City",
    "country": "United States",
    "country_code": "US",
    "iata": "DDC",
    "icao": "KDDC",
    "lat": "37.7634",
    "longitude": "-99.9656",
    "alt": "2594",
    "timezone": "-6",
    "dst": "A",
    "continent": "North America"
  },
  {
    "name": "Door County Cherryland Airport",
    "city": "Sturgeon Bay",
    "country": "United States",
    "country_code": "US",
    "iata": "SUE",
    "icao": "N",
    "lat": "44.8436667",
    "longitude": "-87.4215556",
    "alt": "725",
    "timezone": "-6",
    "dst": "U",
    "continent": "North America"
  },
  {
    "name": "Dothan Rgnl",
    "city": "Dothan",
    "country": "United States",
    "country_code": "US",
    "iata": "DHN",
    "icao": "KDHN",
    "lat": "31.321339",
    "longitude": "-85.449628",
    "alt": "401",
    "timezone": "-6",
    "dst": "A",
    "continent": "North America"
  },
  {
    "name": "Douglas Municipal Airport",
    "city": "Douglas",
    "country": "United States",
    "country_code": "US",
    "iata": "DGL",
    "icao": "KDGL",
    "lat": "31.3426028",
    "longitude": "-109.5064544",
    "alt": "4173",
    "timezone": "-7",
    "dst": "N",
    "continent": "North America"
  },
  {
    "name": "Douglas Municipal Airport",
    "city": "Douglas",
    "country": "United States",
    "country_code": "US",
    "iata": "DQH",
    "icao": "KDQH",
    "lat": "31.4767385",
    "longitude": "-82.8605664",
    "alt": "257",
    "timezone": "-5",
    "dst": "A",
    "continent": "North America"
  },
  {
    "name": "Dover Afb",
    "city": "Dover",
    "country": "United States",
    "country_code": "US",
    "iata": "DOV",
    "icao": "KDOV",
    "lat": "39.129539",
    "longitude": "-75.465958",
    "alt": "28",
    "timezone": "-5",
    "dst": "A",
    "continent": "North America"
  },
  {
    "name": "Dowagiac Municipal Airport",
    "city": "Dowagiac",
    "country": "United States",
    "country_code": "US",
    "iata": "C91",
    "icao": "N",
    "lat": "41.9929342",
    "longitude": "-86.1280125",
    "alt": "748",
    "timezone": "-5",
    "dst": "U",
    "continent": "North America"
  },
  {
    "name": "Downtown",
    "city": "Kansas City",
    "country": "United States",
    "country_code": "US",
    "iata": "MKC",
    "icao": "KMKC",
    "lat": "39.1275",
    "longitude": "-94.598889",
    "alt": "759",
    "timezone": "-6",
    "dst": "A",
    "continent": "North America"
  },
  {
    "name": "Drake Fld",
    "city": "Fayetteville",
    "country": "United States",
    "country_code": "US",
    "iata": "FYV",
    "icao": "KFYV",
    "lat": "36.005094",
    "longitude": "-94.170059",
    "alt": "1251",
    "timezone": "-6",
    "dst": "A",
    "continent": "North America"
  },
  {
    "name": "Draughon Miller Central Texas Rgnl",
    "city": "Temple",
    "country": "United States",
    "country_code": "US",
    "iata": "TPL",
    "icao": "KTPL",
    "lat": "31.1525",
    "longitude": "-97.407778",
    "alt": "682",
    "timezone": "-6",
    "dst": "A",
    "continent": "North America"
  },
  {
    "name": "DuBois Regional Airport",
    "city": "Du Bois",
    "country": "United States",
    "country_code": "US",
    "iata": "DUJ",
    "icao": "KDUJ",
    "lat": "41.1783",
    "longitude": "-78.8987",
    "alt": "1817",
    "timezone": "-5",
    "dst": "A",
    "continent": "North America"
  },
  {
    "name": "Dubuque Rgnl",
    "city": "Dubuque IA",
    "country": "United States",
    "country_code": "US",
    "iata": "DBQ",
    "icao": "KDBQ",
    "lat": "42.402",
    "longitude": "-90.709472",
    "alt": "1076",
    "timezone": "-6",
    "dst": "A",
    "continent": "North America"
  },
  {
    "name": "Duluth Intl",
    "city": "Duluth",
    "country": "United States",
    "country_code": "US",
    "iata": "DLH",
    "icao": "KDLH",
    "lat": "46.842091",
    "longitude": "-92.193649",
    "alt": "1428",
    "timezone": "-6",
    "dst": "A",
    "continent": "North America"
  },
  {
    "name": "Dupage",
    "city": "West Chicago",
    "country": "United States",
    "country_code": "US",
    "iata": "DPA",
    "icao": "KDPA",
    "lat": "41.907778",
    "longitude": "-88.248611",
    "alt": "758",
    "timezone": "-6",
    "dst": "A",
    "continent": "North America"
  },
  {
    "name": "Durango La Plata Co",
    "city": "Durango",
    "country": "United States",
    "country_code": "US",
    "iata": "DRO",
    "icao": "KDRO",
    "lat": "37.151516",
    "longitude": "-107.75377",
    "alt": "6685",
    "timezone": "-7",
    "dst": "A",
    "continent": "North America"
  },
  {
    "name": "Dyess Afb",
    "city": "Abilene",
    "country": "United States",
    "country_code": "US",
    "iata": "DYS",
    "icao": "KDYS",
    "lat": "32.420756",
    "longitude": "-99.8546",
    "alt": "1789",
    "timezone": "-6",
    "dst": "A",
    "continent": "North America"
  },
  {
    "name": "Eagle Airport",
    "city": "Eagle",
    "country": "United States",
    "country_code": "US",
    "iata": "EAA",
    "icao": "PAEG",
    "lat": "64.778056",
    "longitude": "-141.149722",
    "alt": "908",
    "timezone": "-9",
    "dst": "A",
    "continent": "North America"
  },
  {
    "name": "Eagle Co Rgnl",
    "city": "Vail",
    "country": "United States",
    "country_code": "US",
    "iata": "EGE",
    "icao": "KEGE",
    "lat": "39.642556",
    "longitude": "-106.917694",
    "alt": "6540",
    "timezone": "-7",
    "dst": "A",
    "continent": "North America"
  },
  {
    "name": "Eagle County Airport",
    "city": "Eagle",
    "country": "United States",
    "country_code": "US",
    "iata": "EGA",
    "icao": "N",
    "lat": "39.6427611",
    "longitude": "-106.9159347",
    "alt": "6548",
    "timezone": "-7",
    "dst": "U",
    "continent": "North America"
  },
  {
    "name": "Eagle River",
    "city": "Eagle River",
    "country": "United States",
    "country_code": "US",
    "iata": "EGV",
    "icao": "KEGV",
    "lat": "45.932333",
    "longitude": "-89.268283",
    "alt": "1642",
    "timezone": "-6",
    "dst": "A",
    "continent": "North America"
  },
  {
    "name": "Eareckson As",
    "city": "Shemya",
    "country": "United States",
    "country_code": "US",
    "iata": "SYA",
    "icao": "PASY",
    "lat": "52.712275",
    "longitude": "174.11362",
    "alt": "98",
    "timezone": "-10",
    "dst": "A",
    "continent": "North America"
  },
  {
    "name": "East 34th Street Heliport",
    "city": "New York",
    "country": "United States",
    "country_code": "US",
    "iata": "TSS",
    "icao": "NONE",
    "lat": "40.7425",
    "longitude": "-73.971944",
    "alt": "10",
    "timezone": "-5",
    "dst": "A",
    "continent": "North America"
  },
  {
    "name": "East Texas Rgnl",
    "city": "Longview",
    "country": "United States",
    "country_code": "US",
    "iata": "GGG",
    "icao": "KGGG",
    "lat": "32.384014",
    "longitude": "-94.711486",
    "alt": "365",
    "timezone": "-6",
    "dst": "A",
    "continent": "North America"
  },
  {
    "name": "East Troy Municipal Airport",
    "city": "East Troy",
    "country": "United States",
    "country_code": "US",
    "iata": "57C",
    "icao": "K57C",
    "lat": "42.7971667",
    "longitude": "-88.3726111",
    "alt": "860",
    "timezone": "-5",
    "dst": "A",
    "continent": "North America"
  },
  {
    "name": "Eastern Oregon Regional Airport",
    "city": "Pendleton",
    "country": "United States",
    "country_code": "US",
    "iata": "PDT",
    "icao": "KPDT",
    "lat": "45.695",
    "longitude": "-118.841389",
    "alt": "1497",
    "timezone": "-7",
    "dst": "A",
    "continent": "North America"
  },
  {
    "name": "Eastern WV Regional Airport",
    "city": "Martinsburg",
    "country": "United States",
    "country_code": "US",
    "iata": "MRB",
    "icao": "KMRB",
    "lat": "39.2407",
    "longitude": "-77.591",
    "alt": "554",
    "timezone": "-5",
    "dst": "A",
    "continent": "North America"
  },
  {
    "name": "Easterwood Fld",
    "city": "College Station",
    "country": "United States",
    "country_code": "US",
    "iata": "CLL",
    "icao": "KCLL",
    "lat": "30.588583",
    "longitude": "-96.363833",
    "alt": "321",
    "timezone": "-6",
    "dst": "A",
    "continent": "North America"
  },
  {
    "name": "Easton-Newnam Field Airport",
    "city": "Easton",
    "country": "United States",
    "country_code": "US",
    "iata": "ESN",
    "icao": "KESN",
    "lat": "38.8041667",
    "longitude": "-76.069",
    "alt": "72",
    "timezone": "-5",
    "dst": "A",
    "continent": "North America"
  },
  {
    "name": "Edward F Knapp State",
    "city": "Montpelier",
    "country": "United States",
    "country_code": "US",
    "iata": "MPV",
    "icao": "KMPV",
    "lat": "44.203503",
    "longitude": "-72.562328",
    "alt": "1165",
    "timezone": "-5",
    "dst": "A",
    "continent": "North America"
  },
  {
    "name": "Edward G Pitka Sr",
    "city": "Galena",
    "country": "United States",
    "country_code": "US",
    "iata": "GAL",
    "icao": "PAGA",
    "lat": "64.736178",
    "longitude": "-156.937417",
    "alt": "152",
    "timezone": "-9",
    "dst": "A",
    "continent": "North America"
  },
  {
    "name": "Edwards Afb",
    "city": "Edwards Afb",
    "country": "United States",
    "country_code": "US",
    "iata": "EDW",
    "icao": "KEDW",
    "lat": "34.905417",
    "longitude": "-117.883739",
    "alt": "2302",
    "timezone": "-8",
    "dst": "A",
    "continent": "North America"
  },
  {
    "name": "Eek Airport",
    "city": "Eek",
    "country": "United States",
    "country_code": "US",
    "iata": "EEK",
    "icao": "PAEE",
    "lat": "60.213611",
    "longitude": "-162.043889",
    "alt": "15",
    "timezone": "-9",
    "dst": "A",
    "continent": "North America"
  },
  {
    "name": "Egegik Airport",
    "city": "Egegik",
    "country": "United States",
    "country_code": "US",
    "iata": "EGX",
    "icao": "PAII",
    "lat": "58.185556",
    "longitude": "-157.375556",
    "alt": "92",
    "timezone": "-9",
    "dst": "A",
    "continent": "North America"
  },
  {
    "name": "Eglin Afb",
    "city": "Valparaiso",
    "country": "United States",
    "country_code": "US",
    "iata": "VPS",
    "icao": "KVPS",
    "lat": "30.48325",
    "longitude": "-86.5254",
    "alt": "87",
    "timezone": "-6",
    "dst": "A",
    "continent": "North America"
  },
  {
    "name": "Eielson Afb",
    "city": "Fairbanks",
    "country": "United States",
    "country_code": "US",
    "iata": "EIL",
    "icao": "PAEI",
    "lat": "64.665667",
    "longitude": "-147.1015",
    "alt": "548",
    "timezone": "-9",
    "dst": "A",
    "continent": "North America"
  },
  {
    "name": "Ekwok Airport",
    "city": "Ekwok",
    "country": "United States",
    "country_code": "US",
    "iata": "KEK",
    "icao": "N",
    "lat": "59.356944",
    "longitude": "-157.471111",
    "alt": "135",
    "timezone": "-9",
    "dst": "A",
    "continent": "North America"
  },
  {
    "name": "El Centro Naf",
    "city": "El Centro",
    "country": "United States",
    "country_code": "US",
    "iata": "NJK",
    "icao": "KNJK",
    "lat": "32.829222",
    "longitude": "-115.671667",
    "alt": "-42",
    "timezone": "-8",
    "dst": "A",
    "continent": "North America"
  },
  {
    "name": "El Paso Intl",
    "city": "El Paso",
    "country": "United States",
    "country_code": "US",
    "iata": "ELP",
    "icao": "KELP",
    "lat": "31.80725",
    "longitude": "-106.377583",
    "alt": "3958",
    "timezone": "-7",
    "dst": "A",
    "continent": "North America"
  },
  {
    "name": "El Toro",
    "city": "Santa Ana",
    "country": "United States",
    "country_code": "US",
    "iata": "NZJ",
    "icao": "KNZJ",
    "lat": "33.676132",
    "longitude": "-117.731164",
    "alt": "383",
    "timezone": "-8",
    "dst": "A",
    "continent": "North America"
  },