[
  {
    "name": "Belfast Aldergrove",
    "city": "Belfast",
    "country": "United Kingdom",
    "country_code": "UK",
    "iata": "BFS",
    "icao": "EGAA",
    "lat": "54.6575",
    "longitude": "-6.215833",
    "alt": "268",
    "timezone": "0",
    "dst": "E",
    "continent": "Europe"
  },
  {
    "name": "Anglesey Airport",
    "city": "Anglesey",
    "country": "United Kingdom",
    "country_code": "UK",
    "iata": "HLY",
    "icao": "EGOV",
    "lat": "53.248097",
    "longitude": "-4.535339",
    "alt": "37",
    "timezone": "0",
    "dst": "E",
    "continent": "Europe"
  },
  {
    "name": "Ashford",
    "city": "Lympne",
    "country": "United Kingdom",
    "country_code": "UK",
    "iata": "LYM",
    "icao": "EGMK",
    "lat": "51.083333",
    "longitude": "1.016667",
    "alt": "351",
    "timezone": "0",
    "dst": "E",
    "continent": "Europe"
  },
  {
    "name": "Barra Airport",
    "city": "Barra",
    "country": "United Kingdom",
    "country_code": "UK",
    "iata": "BRR",
    "icao": "EGPR",
    "lat": "57.0228",
    "longitude": "-7.44306",
    "alt": "5",
    "timezone": "0",
    "dst": "E",
    "continent": "Europe"
  },
  {
    "name": "Bembridge",
    "city": "Bembridge",
    "country": "United Kingdom",
    "country_code": "UK",
    "iata": "BBP",
    "icao": "EGHJ",
    "lat": "50.677778",
    "longitude": "-1.109444",
    "alt": "53",
    "timezone": "0",
    "dst": "E",
    "continent": "Europe"
  },
  {
    "name": "Benbecula",
    "city": "Benbecula",
    "country": "United Kingdom",
    "country_code": "UK",
    "iata": "BEB",
    "icao": "EGPL",
    "lat": "57.481111",
    "longitude": "-7.362778",
    "alt": "19",
    "timezone": "0",
    "dst": "E",
    "continent": "Europe"
  },
  {
    "name": "Biggin Hill",
    "city": "Biggin Hill",
    "country": "United Kingdom",
    "country_code": "UK",
    "iata": "BQH",
    "icao": "EGKB",
    "lat": "51.330833",
    "longitude": "0.0325",
    "alt": "598",
    "timezone": "0",
    "dst": "E",
    "continent": "Europe"
  },
  {
    "name": "Birmingham",
    "city": "Birmingham",
    "country": "United Kingdom",
    "country_code": "UK",
    "iata": "BHX",
    "icao": "EGBB",
    "lat": "52.453856",
    "longitude": "-1.748028",
    "alt": "327",
    "timezone": "0",
    "dst": "E",
    "continent": "Europe"
  },
  {
    "name": "Blackbushe",
    "city": "Blackbushe",
    "country": "United Kingdom",
    "country_code": "UK",
    "iata": "BBS",
    "icao": "EGLK",
    "lat": "51.323889",
    "longitude": "-0.8475",
    "alt": "325",
    "timezone": "0",
    "dst": "E",
    "continent": "Europe"
  },
  {
    "name": "Blackpool",
    "city": "Blackpool",
    "country": "United Kingdom",
    "country_code": "UK",
    "iata": "BLK",
    "icao": "EGNH",
    "lat": "53.771667",
    "longitude": "-3.028611",
    "alt": "34",
    "timezone": "0",
    "dst": "E",
    "continent": "Europe"
  },
  {
    "name": "Bournemouth",
    "city": "Bournemouth",
    "country": "United Kingdom",
    "country_code": "UK",
    "iata": "BOH",
    "icao": "EGHH",
    "lat": "50.78",
    "longitude": "-1.8425",
    "alt": "38",
    "timezone": "0",
    "dst": "E",
    "continent": "Europe"
  },
  {
    "name": "Bristol",
    "city": "Bristol",
    "country": "United Kingdom",
    "country_code": "UK",
    "iata": "BRS",
    "icao": "EGGD",
    "lat": "51.382669",
    "longitude": "-2.719089",
    "alt": "622",
    "timezone": "0",
    "dst": "E",
    "continent": "Europe"
  },
  {
    "name": "Bristol Filton",
    "city": "Bristol",
    "country": "United Kingdom",
    "country_code": "UK",
    "iata": "FZO",
    "icao": "EGTG",
    "lat": "51.519444",
    "longitude": "-2.590833",
    "alt": "226",
    "timezone": "0",
    "dst": "E",
    "continent": "Europe"
  },
  {
    "name": "Brize Norton",
    "city": "Brize Norton",
    "country": "United Kingdom",
    "country_code": "UK",
    "iata": "BZZ",
    "icao": "EGVN",
    "lat": "51.749964",
    "longitude": "-1.583617",
    "alt": "288",
    "timezone": "0",
    "dst": "E",
    "continent": "Europe"
  },
  {
    "name": "Cambridge",
    "city": "Cambridge",
    "country": "United Kingdom",
    "country_code": "UK",
    "iata": "CBG",
    "icao": "EGSC",
    "lat": "52.205",
    "longitude": "0.175",
    "alt": "47",
    "timezone": "0",
    "dst": "E",
    "continent": "Europe"
  },
  {
    "name": "Campbeltown Airport",
    "city": "Campbeltown",
    "country": "United Kingdom",
    "country_code": "UK",
    "iata": "CAL",
    "icao": "EGEC",
    "lat": "55.4372",
    "longitude": "-5.68639",
    "alt": "42",
    "timezone": "0",
    "dst": "E",
    "continent": "Europe"
  },
  {
    "name": "Cardiff",
    "city": "Cardiff",
    "country": "United Kingdom",
    "country_code": "UK",
    "iata": "CWL",
    "icao": "EGFF",
    "lat": "51.396667",
    "longitude": "-3.343333",
    "alt": "220",
    "timezone": "0",
    "dst": "E",
    "continent": "Europe"
  },
  {
    "name": "Carlisle",
    "city": "Carlisle",
    "country": "United Kingdom",
    "country_code": "UK",
    "iata": "CAX",
    "icao": "EGNC",
    "lat": "54.9375",
    "longitude": "-2.809167",
    "alt": "190",
    "timezone": "0",
    "dst": "E",
    "continent": "Europe"
  },
  {
    "name": "Belfast City",
    "city": "Belfast",
    "country": "United Kingdom",
    "country_code": "UK",
    "iata": "BHD",
    "icao": "EGAC",
    "lat": "54.618056",
    "longitude": "-5.8725",
    "alt": "15",
    "timezone": "0",
    "dst": "E",
    "continent": "Europe"
  },
  {
    "name": "City",
    "city": "London",
    "country": "United Kingdom",
    "country_code": "UK",
    "iata": "LCY",
    "icao": "EGLC",
    "lat": "51.505278",
    "longitude": "0.055278",
    "alt": "19",
    "timezone": "0",
    "dst": "E",
    "continent": "Europe"
  },
  {
    "name": "Coll Airport",
    "city": "Coll",
    "country": "United Kingdom",
    "country_code": "UK",
    "iata": "COL",
    "icao": "N",
    "lat": "56.633333",
    "longitude": "-6.557222",
    "alt": "50",
    "timezone": "0",
    "dst": "U",
    "continent": "Europe"
  },
  {
    "name": "Colonsay Airport",
    "city": "Colonsay",
    "country": "United Kingdom",
    "country_code": "UK",
    "iata": "CSA",
    "icao": "EGEY",
    "lat": "56.0575",
    "longitude": "-6.243056",
    "alt": "44",
    "timezone": "0",
    "dst": "U",
    "continent": "Europe"
  },
  {
    "name": "Coningsby",
    "city": "Coningsby",
    "country": "United Kingdom",
    "country_code": "UK",
    "iata": "QCY",
    "icao": "EGXC",
    "lat": "53.093014",
    "longitude": "-0.166014",
    "alt": "25",
    "timezone": "0",
    "dst": "E",
    "continent": "Europe"
  },
  {
    "name": "Coventry",
    "city": "Coventry",
    "country": "United Kingdom",
    "country_code": "UK",
    "iata": "CVT",
    "icao": "EGBE",
    "lat": "52.369722",
    "longitude": "-1.479722",
    "alt": "267",
    "timezone": "0",
    "dst": "E",
    "continent": "Europe"
  },
  {
    "name": "Dundee",
    "city": "Dundee",
    "country": "United Kingdom",
    "country_code": "UK",
    "iata": "DND",
    "icao": "EGPN",
    "lat": "56.452499",
    "longitude": "-3.025833",
    "alt": "17",
    "timezone": "0",
    "dst": "E",
    "continent": "Europe"
  },
  {
    "name": "Durham Tees Valley Airport",
    "city": "Teesside",
    "country": "United Kingdom",
    "country_code": "UK",
    "iata": "MME",
    "icao": "EGNV",
    "lat": "54.509189",
    "longitude": "-1.429406",
    "alt": "120",
    "timezone": "0",
    "dst": "E",
    "continent": "Europe"
  },
  {
    "name": "Dyce",
    "city": "Aberdeen",
    "country": "United Kingdom",
    "country_code": "UK",
    "iata": "ABZ",
    "icao": "EGPD",
    "lat": "57.201944",
    "longitude": "-2.197778",
    "alt": "215",
    "timezone": "0",
    "dst": "E",
    "continent": "Europe"
  },
  {
    "name": "Eday Airport",
    "city": "Eday",
    "country": "United Kingdom",
    "country_code": "UK",
    "iata": "EOI",
    "icao": "EGED",
    "lat": "59.1906",
    "longitude": "-2.77222",
    "alt": "10",
    "timezone": "0",
    "dst": "E",
    "continent": "Europe"
  },
  {
    "name": "Edinburgh",
    "city": "Edinburgh",
    "country": "United Kingdom",
    "country_code": "UK",
    "iata": "EDI",
    "icao": "EGPH",
    "lat": "55.95",
    "longitude": "-3.3725",
    "alt": "135",
    "timezone": "0",
    "dst": "E",
    "continent": "Europe"
  },
  {
    "name": "Exeter",
    "city": "Exeter",
    "country": "United Kingdom",
    "country_code": "UK",
    "iata": "EXT",
    "icao": "EGTE",
    "lat": "50.734444",
    "longitude": "-3.413889",
    "alt": "102",
    "timezone": "0",
    "dst": "E",
    "continent": "Europe"
  },
  {
    "name": "Fair Isle Airport",
    "city": "Fair Isle",
    "country": "United Kingdom",
    "country_code": "UK",
    "iata": "FIE",
    "icao": "EGEF",
    "lat": "59.5358",
    "longitude": "-1.62806",
    "alt": "223",
    "timezone": "0",
    "dst": "E",
    "continent": "Europe"
  },
  {
    "name": "Fairford",
    "city": "Fairford",
    "country": "United Kingdom",
    "country_code": "UK",
    "iata": "FFD",
    "icao": "EGVA",
    "lat": "51.682167",
    "longitude": "-1.790028",
    "alt": "286",
    "timezone": "0",
    "dst": "E",
    "continent": "Europe"
  },
  {
    "name": "Farnborough",
    "city": "Farnborough",
    "country": "United Kingdom",
    "country_code": "UK",
    "iata": "FAB",
    "icao": "EGLF",
    "lat": "51.275833",
    "longitude": "-0.776333",
    "alt": "238",
    "timezone": "0",
    "dst": "E",
    "continent": "Europe"
  },
  {
    "name": "Fort William Heliport",
    "city": "Fort William",
    "country": "United Kingdom",
    "country_code": "UK",
    "iata": "FWM",
    "icao": "N",
    "lat": "56.816666",
    "longitude": "-5.116667",
    "alt": "0",
    "timezone": "0",
    "dst": "E",
    "continent": "Europe"
  },
  {
    "name": "Foula Airport",
    "city": "Foula",
    "country": "United Kingdom",
    "country_code": "UK",
    "iata": "FOA",
    "icao": "",
    "lat": "60.121",
    "longitude": "-2.052",
    "alt": "0",
    "timezone": "0",
    "dst": "E",
    "continent": "Europe"
  },
  {
    "name": "Gatwick",
    "city": "London",
    "country": "United Kingdom",
    "country_code": "UK",
    "iata": "LGW",
    "icao": "EGKK",
    "lat": "51.148056",
    "longitude": "-0.190278",
    "alt": "202",
    "timezone": "0",
    "dst": "E",
    "continent": "Europe"
  },
  {
    "name": "Glasgow",
    "city": "Glasgow",
    "country": "United Kingdom",
    "country_code": "UK",
    "iata": "GLA",
    "icao": "EGPF",
    "lat": "55.871944",
    "longitude": "-4.433056",
    "alt": "26",
    "timezone": "0",
    "dst": "E",
    "continent": "Europe"
  },
  {
    "name": "Gloucestershire",
    "city": "Golouchestershire",
    "country": "United Kingdom",
    "country_code": "UK",
    "iata": "GLO",
    "icao": "EGBJ",
    "lat": "51.894167",
    "longitude": "-2.167222",
    "alt": "101",
    "timezone": "0",
    "dst": "E",
    "continent": "Europe"
  },
  {
    "name": "Hatfield",
    "city": "Hatfield",
    "country": "United Kingdom",
    "country_code": "UK",
    "iata": "HTF",
    "icao": "N",
    "lat": "51.765",
    "longitude": "-0.24833",
    "alt": "254",
    "timezone": "0",
    "dst": "U",
    "continent": "Europe"
  },
  {
    "name": "Hawarden",
    "city": "Hawarden",
    "country": "United Kingdom",
    "country_code": "UK",
    "iata": "CEG",
    "icao": "EGNR",
    "lat": "53.178056",
    "longitude": "-2.977778",
    "alt": "45",
    "timezone": "0",
    "dst": "E",
    "continent": "Europe"
  },
  {
    "name": "Heathrow",
    "city": "London",
    "country": "United Kingdom",
    "country_code": "UK",
    "iata": "LHR",
    "icao": "EGLL",
    "lat": "51.4775",
    "longitude": "-0.461389",
    "alt": "83",
    "timezone": "0",
    "dst": "E",
    "continent": "Europe"
  },
  {
    "name": "Honington",
    "city": "Honington",
    "country": "United Kingdom",
    "country_code": "UK",
    "iata": "BEQ",
    "icao": "EGXH",
    "lat": "52.342611",
    "longitude": "0.772939",
    "alt": "174",
    "timezone": "0",
    "dst": "E",
    "continent": "Europe"
  },
  {
    "name": "Humberside",
    "city": "Humberside",
    "country": "United Kingdom",
    "country_code": "UK",
    "iata": "HUY",
    "icao": "EGNJ",
    "lat": "53.574444",
    "longitude": "-0.350833",
    "alt": "121",
    "timezone": "0",
    "dst": "E",
    "continent": "Europe"
  },
  {
    "name": "Inverness",
    "city": "Inverness",
    "country": "United Kingdom",
    "country_code": "UK",
    "iata": "INV",
    "icao": "EGPE",
    "lat": "57.5425",
    "longitude": "-4.0475",
    "alt": "31",
    "timezone": "0",
    "dst": "E",
    "continent": "Europe"
  },
  {
    "name": "Islay",
    "city": "Islay",
    "country": "United Kingdom",
    "country_code": "UK",
    "iata": "ILY",
    "icao": "EGPI",
    "lat": "55.681944",
    "longitude": "-6.256667",
    "alt": "56",
    "timezone": "0",
    "dst": "E",
    "continent": "Europe"
  },
  {
    "name": "ISLES OF SCILLY",
    "city": "ST MARY'S",
    "country": "United Kingdom",
    "country_code": "UK",
    "iata": "ISC",
    "icao": "N",
    "lat": "49.919",
    "longitude": "-6.3075",
    "alt": "70",
    "timezone": "0",
    "dst": "E",
    "continent": "Europe"
  },
  {
    "name": "Kidlington",
    "city": "Oxford",
    "country": "United Kingdom",
    "country_code": "UK",
    "iata": "OXF",
    "icao": "EGTK",
    "lat": "51.836944",
    "longitude": "-1.32",
    "alt": "270",
    "timezone": "0",
    "dst": "E",
    "continent": "Europe"
  },
  {
    "name": "Kirkwall",
    "city": "Kirkwall",
    "country": "United Kingdom",
    "country_code": "UK",
    "iata": "KOI",
    "icao": "EGPA",
    "lat": "58.957778",
    "longitude": "-2.905",
    "alt": "50",
    "timezone": "0",
    "dst": "E",
    "continent": "Europe"
  },
  {
    "name": "Land's End \/ St. Just Airport",
    "city": "Land's End",
    "country": "United Kingdom",
    "country_code": "UK",
    "iata": "LEQ",
    "icao": "EGHC",
    "lat": "50.1028",
    "longitude": "-5.67056",
    "alt": "401",
    "timezone": "0",
    "dst": "E",
    "continent": "Europe"
  },
  {
    "name": "Lasham",
    "city": "Lasham",
    "country": "United Kingdom",
    "country_code": "UK",
    "iata": "QLA",
    "icao": "EGHL",
    "lat": "51.187167",
    "longitude": "-1.0335",
    "alt": "618",
    "timezone": "0",
    "dst": "E",
    "continent": "Europe"
  },
  {
    "name": "Leeds Bradford",
    "city": "Leeds",
    "country": "United Kingdom",
    "country_code": "UK",
    "iata": "LBA",
    "icao": "EGNM",
    "lat": "53.865897",
    "longitude": "-1.660569",
    "alt": "681",
    "timezone": "0",
    "dst": "E",
    "continent": "Europe"
  },
  {
    "name": "Lerwick \/ Tingwall Airport",
    "city": "Lerwick",
    "country": "United Kingdom",
    "country_code": "UK",
    "iata": "LWK",
    "icao": "EGET",
    "lat": "60.1922",
    "longitude": "-1.24361",
    "alt": "43",
    "timezone": "0",
    "dst": "E",
    "continent": "Europe"
  },
  {
    "name": "Leuchars",
    "city": "Leuchars",
    "country": "United Kingdom",
    "country_code": "UK",
    "iata": "ADX",
    "icao": "EGQL",
    "lat": "56.372889",
    "longitude": "-2.868444",
    "alt": "38",
    "timezone": "0",
    "dst": "E",
    "continent": "Europe"
  },
  {
    "name": "Liverpool",
    "city": "Liverpool",
    "country": "United Kingdom",
    "country_code": "UK",
    "iata": "LPL",
    "icao": "EGGP",
    "lat": "53.333611",
    "longitude": "-2.849722",
    "alt": "80",
    "timezone": "0",
    "dst": "E",
    "continent": "Europe"
  },
  {
    "name": "London St Pancras",
    "city": "London",
    "country": "United Kingdom",
    "country_code": "UK",
    "iata": "STP",
    "icao": "N",
    "lat": "51.53",
    "longitude": "-0.125",
    "alt": "0",
    "timezone": "0",
    "dst": "E",
    "continent": "Europe"
  },
  {
    "name": "Londonderry Eglinton",
    "city": "Londonderry",
    "country": "United Kingdom",
    "country_code": "UK",
    "iata": "LDY",
    "icao": "EGAE",
    "lat": "55.042778",
    "longitude": "-7.161111",
    "alt": "22",
    "timezone": "0",
    "dst": "E",
    "continent": "Europe"
  },
  {
    "name": "Lossiemouth",
    "city": "Lossiemouth",
    "country": "United Kingdom",
    "country_code": "UK",
    "iata": "LMO",
    "icao": "EGQS",
    "lat": "57.705214",
    "longitude": "-3.339169",
    "alt": "42",
    "timezone": "0",
    "dst": "E",
    "continent": "Europe"
  },
  {
    "name": "Luton",
    "city": "London",
    "country": "United Kingdom",
    "country_code": "UK",
    "iata": "LTN",
    "icao": "EGGW",
    "lat": "51.874722",
    "longitude": "-0.368333",
    "alt": "526",
    "timezone": "0",
    "dst": "E",
    "continent": "Europe"
  },
  {
    "name": "Lydd",
    "city": "Lydd",
    "country": "United Kingdom",
    "country_code": "UK",
    "iata": "LYX",
    "icao": "EGMD",
    "lat": "50.956111",
    "longitude": "0.939167",
    "alt": "13",
    "timezone": "0",
    "dst": "E",
    "continent": "Europe"
  },
  {
    "name": "Lyneham",
    "city": "Lyneham",
    "country": "United Kingdom",
    "country_code": "UK",
    "iata": "LYE",
    "icao": "EGDL",
    "lat": "51.505144",
    "longitude": "-1.993428",
    "alt": "513",
    "timezone": "0",
    "dst": "E",
    "continent": "Europe"
  },
  {
    "name": "Manchester",
    "city": "Manchester",
    "country": "United Kingdom",
    "country_code": "UK",
    "iata": "MAN",
    "icao": "EGCC",
    "lat": "53.353744",
    "longitude": "-2.27495",
    "alt": "257",
    "timezone": "0",
    "dst": "E",
    "continent": "Europe"
  },
  {
    "name": "Manston",
    "city": "Manston",
    "country": "United Kingdom",
    "country_code": "UK",
    "iata": "MSE",
    "icao": "EGMH",
    "lat": "51.342222",
    "longitude": "1.346111",
    "alt": "178",
    "timezone": "0",
    "dst": "E",
    "continent": "Europe"
  },
  {
    "name": "Marham",
    "city": "Marham",
    "country": "United Kingdom",
    "country_code": "UK",
    "iata": "KNF",
    "icao": "EGYM",
    "lat": "52.648353",
    "longitude": "0.550692",
    "alt": "75",
    "timezone": "0",
    "dst": "E",
    "continent": "Europe"
  },
  {
    "name": "Mildenhall",
    "city": "Mildenhall",
    "country": "United Kingdom",
    "country_code": "UK",
    "iata": "MHZ",
    "icao": "EGUN",
    "lat": "52.361933",
    "longitude": "0.486406",
    "alt": "33",
    "timezone": "0",
    "dst": "E",
    "continent": "Europe"
  },
  {
    "name": "Newcastle",
    "city": "Newcastle",
    "country": "United Kingdom",
    "country_code": "UK",
    "iata": "NCL",
    "icao": "EGNT",
    "lat": "55.0375",
    "longitude": "-1.691667",
    "alt": "266",
    "timezone": "0",
    "dst": "E",
    "continent": "Europe"
  },
  {
    "name": "North Ronaldsay Airport",
    "city": "North Ronaldsay",
    "country": "United Kingdom",
    "country_code": "UK",
    "iata": "NRL",
    "icao": "EGEN",
    "lat": "59.3675",
    "longitude": "-2.43444",
    "alt": "40",
    "timezone": "0",
    "dst": "E",
    "continent": "Europe"
  },
  {
    "name": "Northolt",
    "city": "Northolt",
    "country": "United Kingdom",
    "country_code": "UK",
    "iata": "NHT",
    "icao": "EGWU",
    "lat": "51.553",
    "longitude": "-0.418167",
    "alt": "124",
    "timezone": "0",
    "dst": "E",
    "continent": "Europe"
  },
  {
    "name": "Norwich",
    "city": "Norwich",
    "country": "United Kingdom",
    "country_code": "UK",
    "iata": "NWI",
    "icao": "EGSH",
    "lat": "52.675833",
    "longitude": "1.282778",
    "alt": "117",
    "timezone": "0",
    "dst": "E",
    "continent": "Europe"
  },
  {
    "name": "Nottingham Airport",
    "city": "Nottingham",
    "country": "United Kingdom",
    "country_code": "UK",
    "iata": "NQT",
    "icao": "EGBN",
    "lat": "52.92",
    "longitude": "-1.079167",
    "alt": "138",
    "timezone": "0",
    "dst": "E",
    "continent": "Europe"
  },
  {
    "name": "Nottingham East Midlands",
    "city": "East Midlands",
    "country": "United Kingdom",
    "country_code": "UK",
    "iata": "EMA",
    "icao": "EGNX",
    "lat": "52.831111",
    "longitude": "-1.328056",
    "alt": "306",
    "timezone": "0",
    "dst": "E",
    "continent": "Europe"
  },
  {
    "name": "Oban Airport",
    "city": "North Connel",
    "country": "United Kingdom",
    "country_code": "UK",
    "iata": "OBN",
    "icao": "EGEO",
    "lat": "56.464",
    "longitude": "-5.4",
    "alt": "23",
    "timezone": "0",
    "dst": "E",
    "continent": "Europe"
  },
  {
    "name": "Odiham",
    "city": "Odiham",
    "country": "United Kingdom",
    "country_code": "UK",
    "iata": "ODH",
    "icao": "EGVO",
    "lat": "51.234139",
    "longitude": "-0.942825",
    "alt": "405",
    "timezone": "0",
    "dst": "E",
    "continent": "Europe"
  },
  {
    "name": "Outer Skerries Airport",
    "city": "",
    "country": "United Kingdom",
    "country_code": "UK",
    "iata": "OUK",
    "icao": "",
    "lat": "60.417",
    "longitude": "-0.75",
    "alt": "0",
    "timezone": "0",
    "dst": "E",
    "continent": "Europe"
  },
  {
    "name": "Paddington Station",
    "city": "London",
    "country": "United Kingdom",
    "country_code": "UK",
    "iata": "QQP",
    "icao": "N",
    "lat": "51.515833",
    "longitude": "-0.176111",
    "alt": "0",
    "timezone": "0",
    "dst": "E",
    "continent": "Europe"
  },
  {
    "name": "Papa Stour Airport",
    "city": "Papa Stour",
    "country": "United Kingdom",
    "country_code": "UK",
    "iata": "PSV",
    "icao": "",
    "lat": "60.3217",
    "longitude": "-1.69306",
    "alt": "0",
    "timezone": "0",
    "dst": "E",
    "continent": "Europe"
  },
  {
    "name": "Papa Westray Airport",
    "city": "Papa Westray",
    "country": "United Kingdom",
    "country_code": "UK",
    "iata": "PPW",
    "icao": "EGEP",
    "lat": "59.3517",
    "longitude": "-2.90028",
    "alt": "91",
    "timezone": "0",
    "dst": "E",
    "continent": "Europe"
  },
  {
    "name": "Penzance Heliport",
    "city": "Penzance",
    "country": "United Kingdom",
    "country_code": "UK",
    "iata": "PZE",
    "icao": "EGHK",
    "lat": "50.1281",
    "longitude": "-5.51845",
    "alt": "14",
    "timezone": "0",
    "dst": "E",
    "continent": "Europe"
  },
  {
    "name": "Plymouth",
    "city": "Plymouth",
    "country": "United Kingdom",
    "country_code": "UK",
    "iata": "PLH",
    "icao": "EGHD",
    "lat": "50.422778",
    "longitude": "-4.105833",
    "alt": "476",
    "timezone": "0",
    "dst": "E",
    "continent": "Europe"
  },
  {
    "name": "Portsmouth Airport",
    "city": "Portsmouth",
    "country": "United Kingdom",
    "country_code": "UK",
    "iata": "PME",
    "icao": "N",
    "lat": "50.8",
    "longitude": "-1.083333",
    "alt": "0",
    "timezone": "0",
    "dst": "E",
    "continent": "Europe"
  },
  {
    "name": "Prestwick",
    "city": "Prestwick",
    "country": "United Kingdom",
    "country_code": "UK",
    "iata": "PIK",
    "icao": "EGPK",
    "lat": "55.509444",
    "longitude": "-4.586667",
    "alt": "65",
    "timezone": "0",
    "dst": "E",
    "continent": "Europe"
  },
  {
    "name": "Robin Hood Doncaster Sheffield Airport",
    "city": "Doncaster",
    "country": "United Kingdom",
    "country_code": "UK",
    "iata": "DSA",
    "icao": "EGCN",
    "lat": "53.47",
    "longitude": "-1.004444",
    "alt": "55",
    "timezone": "0",
    "dst": "E",
    "continent": "Europe"
  },
  {
    "name": "Sanday Airport",
    "city": "Sanday",
    "country": "United Kingdom",
    "country_code": "UK",
    "iata": "NDY",
    "icao": "EGES",
    "lat": "59.2503",
    "longitude": "-2.57667",
    "alt": "68",
    "timezone": "0",
    "dst": "E",
    "continent": "Europe"
  },
  {
    "name": "Scatsta",
    "city": "Scatsta",
    "country": "United Kingdom",
    "country_code": "UK",
    "iata": "SDZ",
    "icao": "EGPM",
    "lat": "60.432778",
    "longitude": "-1.296111",
    "alt": "81",
    "timezone": "0",
    "dst": "E",
    "continent": "Europe"
  },
  {
    "name": "Shoreham",
    "city": "Shoreham By Sea",
    "country": "United Kingdom",
    "country_code": "UK",
    "iata": "ESH",
    "icao": "EGKA",
    "lat": "50.835556",
    "longitude": "-0.297222",
    "alt": "7",
    "timezone": "0",
    "dst": "E",
    "continent": "Europe"
  },
  {
    "name": "Southampton",
    "city": "Southampton",
    "country": "United Kingdom",
    "country_code": "UK",
    "iata": "SOU",
    "icao": "EGHI",
    "lat": "50.950261",
    "longitude": "-1.356803",
    "alt": "44",
    "timezone": "0",
    "dst": "E",
    "continent": "Europe"
  },
  {
    "name": "Southend",
    "city": "Southend",
    "country": "United Kingdom",
    "country_code": "UK",
    "iata": "SEN",
    "icao": "EGMC",
    "lat": "51.571389",
    "longitude": "0.695556",
    "alt": "49",
    "timezone": "0",
    "dst": "E",
    "continent": "Europe"
  },
  {
    "name": "St Angelo",
    "city": "Enniskillen",
    "country": "United Kingdom",
    "country_code": "UK",
    "iata": "ENK",
    "icao": "EGAB",
    "lat": "54.398889",
    "longitude": "-7.651667",
    "alt": "155",
    "timezone": "0",
    "dst": "E",
    "continent": "Europe"
  },
  {
    "name": "St Mawgan",
    "city": "Newquai",
    "country": "United Kingdom",
    "country_code": "UK",
    "iata": "NQY",
    "icao": "EGDG",
    "lat": "50.440558",
    "longitude": "-4.995408",
    "alt": "390",
    "timezone": "0",
    "dst": "E",
    "continent": "Europe"
  },
  {
    "name": "St Pancras Railway Station",
    "city": "London",
    "country": "United Kingdom",
    "country_code": "UK",
    "iata": "QQS",
    "icao": "N",
    "lat": "51.5325194921",
    "longitude": "-0.126300373",
    "alt": "80",
    "timezone": "0",
    "dst": "E",
    "continent": "Europe"
  },
  {
    "name": "Stansted",
    "city": "London",
    "country": "United Kingdom",
    "country_code": "UK",
    "iata": "STN",
    "icao": "EGSS",
    "lat": "51.885",
    "longitude": "0.235",
    "alt": "348",
    "timezone": "0",
    "dst": "E",
    "continent": "Europe"
  },
  {
    "name": "Stornoway",
    "city": "Stornoway",
    "country": "United Kingdom",
    "country_code": "UK",
    "iata": "SYY",
    "icao": "EGPO",
    "lat": "58.215556",
    "longitude": "-6.331111",
    "alt": "26",
    "timezone": "0",
    "dst": "E",
    "continent": "Europe"
  },
  {
    "name": "Stronsay Airport",
    "city": "Stronsay",
    "country": "United Kingdom",
    "country_code": "UK",
    "iata": "SOY",
    "icao": "EGER",
    "lat": "59.1553",
    "longitude": "-2.64139",
    "alt": "39",
    "timezone": "0",
    "dst": "E",
    "continent": "Europe"
  },
  {
    "name": "Sumburgh",
    "city": "Sumburgh",
    "country": "United Kingdom",
    "country_code": "UK",
    "iata": "LSI",
    "icao": "EGPB",
    "lat": "59.878889",
    "longitude": "-1.295556",
    "alt": "20",
    "timezone": "0",
    "dst": "E",
    "continent": "Europe"
  },
  {
    "name": "Swansea",
    "city": "Swansea",
    "country": "United Kingdom",
    "country_code": "UK",
    "iata": "SWS",
    "icao": "EGFH",
    "lat": "51.605333",
    "longitude": "-4.067833",
    "alt": "299",
    "timezone": "0",
    "dst": "E",
    "continent": "Europe"
  },
  {
    "name": "Tiree",
    "city": "Tiree",
    "country": "United Kingdom",
    "country_code": "UK",
    "iata": "TRE",
    "icao": "EGPU",
    "lat": "56.499167",
    "longitude": "-6.869167",
    "alt": "38",
    "timezone": "0",
    "dst": "E",
    "continent": "Europe"
  },
  {
    "name": "Tresco Heliport",
    "city": "Tresco",
    "country": "United Kingdom",
    "country_code": "UK",
    "iata": "TSO",
    "icao": "EGHT",
    "lat": "49.945556",
    "longitude": "-6.331389",
    "alt": "20",
    "timezone": "0",
    "dst": "U",
    "continent": "Europe"
  },
  {
    "name": "Unst Airport",
    "city": "Unst",
    "country": "United Kingdom",
    "country_code": "UK",
    "iata": "UNT",
    "icao": "EGPW",
    "lat": "60.7472",
    "longitude": "-0.85385",
    "alt": "0",
    "timezone": "0",
    "dst": "E",
    "continent": "Europe"
  },
  {
    "name": "Waddington",
    "city": "Waddington",
    "country": "United Kingdom",
    "country_code": "UK",
    "iata": "WTN",
    "icao": "EGXW",
    "lat": "53.166167",
    "longitude": "-0.523811",
    "alt": "231",
    "timezone": "0",
    "dst": "E",
    "continent": "Europe"
  },
  {
    "name": "Walney Island",
    "city": "Barrow Island",
    "country": "United Kingdom",
    "country_code": "UK",
    "iata": "BWF",
    "icao": "EGNL",
    "lat": "54.131167",
    "longitude": "-3.263667",
    "alt": "173",
    "timezone": "0",
    "dst": "E",
    "continent": "Europe"
  },
  {
    "name": "Westray Airport",
    "city": "Westray",
    "country": "United Kingdom",
    "country_code": "UK",
    "iata": "WRY",
    "icao": "EGEW",
    "lat": "59.3503",
    "longitude": "-2.95",
    "alt": "29",
    "timezone": "0",
    "dst": "E",
    "continent": "Europe"
  },
  {
    "name": "Wick",
    "city": "Wick",
    "country": "United Kingdom",
    "country_code": "UK",
    "iata": "WIC",
    "icao": "EGPC",
    "lat": "58.458889",
    "longitude": "-3.093056",
    "alt": "126",
    "timezone": "0",
    "dst": "E",
    "continent": "Europe"
  },
  {
    "name": "Wideawake Field",
    "city": "Georgetown Acension Island Santa Helena",
    "country": "United Kingdom",
    "country_code": "UK",
    "iata": "ASI",
    "icao": "N",
    "lat": "-7.969597",
    "longitude": "-14.393664",
    "alt": "278",
    "timezone": "0",
    "dst": "U",
    "continent": "Europe"
  },
  {
    "name": "Yeovilton",
    "city": "Yeovilton",
    "country": "United Kingdom",
    "country_code": "UK",
    "iata": "YEO",
    "icao": "EGDY",
    "lat": "51.009358",
    "longitude": "-2.638819",
    "alt": "75",
    "timezone": "0",
    "dst": "E",
    "continent": "Europe"
  },
  {
    "name": "Anglesey Airport",
    "city": "Anglesey",
    "country": "United Kingdom",
    "country_code": "UK",
    "iata": "VLY",
    "icao": "EGOV",
    "lat": "53.248097",
    "longitude": "-4.535339",
    "alt": "37",
    "timezone": "0",
    "dst": "E",
    "continent": "Europe"
  }
]
